{"businesses": [{"id": "C-8mGN7lt5rIraO5n-15ug", "alias": "the-smith-new-york-2", "name": "The Smith", "image_url": "https://s3-media1.fl.yelpcdn.com/bphoto/fGAZCdyPI8qil5boCzidBA/o.jpg", "is_closed": false, "url": "https://www.yelp.com/biz/the-smith-new-york-2?adjust_creative=OY9bhzgAA-Uo0FfcOdtyDQ&utm_campaign=yelp_api_v3&utm_medium=api_v3_business_search&utm_source=OY9bhzgAA-Uo0FfcOdtyDQ", "review_count": 2328, "categories": [{"alias": "newamerican", "title": "American (New)"}, {"alias": "breakfast_brunch", "title": "Breakfast & Brunch"}, {"alias": "cocktailbars", "title": "Cocktail Bars"}], "rating": 4.0, "coordinates": {"latitude": 40.755165, "longitude": -73.967868}, "transactions": ["delivery", "pickup"], "price": "$$", "location": {"address1": "956 2nd Ave", "address2": "", "address3": "", "city": "New York", "zip_code": "10022", "country": "US", "state": "NY", "display_address": ["956 2nd Ave", "New York, NY 10022"]}, "phone": "+12126442700", "display_phone": "(212) 644-2700", "distance": 5960.16818302934}, {"id": "63xEppObiNqq_lVE5HGFvw", "alias": "the-poni-room-new-york", "name": "The Poni Room", "image_url": "https://s3-media4.fl.yelpcdn.com/bphoto/d4qYvef87l1VpaPOo_remg/o.jpg", "is_closed": false, "url": "https://www.yelp.com/biz/the-poni-room-new-york?adjust_creative=OY9bhzgAA-Uo0FfcOdtyDQ&utm_campaign=yelp_api_v3&utm_medium=api_v3_business_search&utm_source=OY9bhzgAA-Uo0FfcOdtyDQ", "review_count": 7, "categories": [{"alias": "wine_bars", "title": "Wine Bars"}, {"alias": "seafood", "title": "Seafood"}, {"alias": "tapasmallplates", "title": "Tapas/Small Plates"}], "rating": 5.0, "coordinates": {"latitude": 40.72521, "longitude": -73.99247}, "transactions": [], "location": {"address1": "316 Bowery", "address2": null, "address3": null, "city": "New York", "zip_code": "10012", "country": "US", "state": "NY", "display_address": ["316 Bowery", "New York, NY 10012"]}, "phone": "+12122540350", "display_phone": "(212) 254-0350", "distance": 2201.6355352040982}, {"id": "Rc1lxc5lSKJYd162JHNMfQ", "alias": "bea-new-york", "name": "Bea", "image_url": "https://s3-media2.fl.yelpcdn.com/bphoto/MsmtaEOOHFQrINBPLnZOUw/o.jpg", "is_closed": false, "url": "https://www.yelp.com/biz/bea-new-york?adjust_creative=OY9bhzgAA-Uo0FfcOdtyDQ&utm_campaign=yelp_api_v3&utm_medium=api_v3_business_search&utm_source=OY9bhzgAA-Uo0FfcOdtyDQ", "review_count": 2219, "categories": [{"alias": "newamerican", "title": "American (New)"}, {"alias": "cocktailbars", "title": "Cocktail Bars"}], "rating": 4.0, "coordinates": {"latitude": 40.7591968, "longitude": -73.9923361}, "transactions": ["restaurant_reservation"], "price": "$$", "location": {"address1": "403 W 43rd St", "address2": "", "address3": "", "city": "New York", "zip_code": "10036", "country": "US", "state": "NY", "display_address": ["403 W 43rd St", "New York, NY 10036"]}, "phone": "+12126021910", "display_phone": "(212) 602-1910", "distance": 5979.210371091945}, {"id": "CwOAKJdX8AMz5iAoA-ZEuA", "alias": "uglyduckling-brooklyn", "name": "Uglyduckling", "image_url": "https://s3-media2.fl.yelpcdn.com/bphoto/vyH8WZkvbeWHebYYz-M8rg/o.jpg", "is_closed": false, "url": "https://www.yelp.com/biz/uglyduckling-brooklyn?adjust_creative=OY9bhzgAA-Uo0FfcOdtyDQ&utm_campaign=yelp_api_v3&utm_medium=api_v3_business_search&utm_source=OY9bhzgAA-Uo0FfcOdtyDQ", "review_count": 431, "categories": [{"alias": "tradamerican", "title": "American (Traditional)"}, {"alias": "gastropubs", "title": "Gastropubs"}], "rating": 4.0, "coordinates": {"latitude": 40.686023, "longitude": -73.991302}, "transactions": ["delivery", "pickup", "restaurant_reservation"], "price": "$$", "location": {"address1": "166 Smith St", "address2": "", "address3": "", "city": "Brooklyn", "zip_code": "11201", "country": "US", "state": "NY", "display_address": ["166 Smith St", "Brooklyn, NY 11201"]}, "phone": "+17184513825", "display_phone": "(718) 451-3825", "distance": 2174.2838817065267}, {"id": "_0WFGjXuenlBixOlbSlGeQ", "alias": "crown-shy-new-york-2", "name": "Crown Shy", "image_url": "https://s3-media2.fl.yelpcdn.com/bphoto/3hIPH52mjCgJ5E1XtztcoQ/o.jpg", "is_closed": false, "url": "https://www.yelp.com/biz/crown-shy-new-york-2?adjust_creative=OY9bhzgAA-Uo0FfcOdtyDQ&utm_campaign=yelp_api_v3&utm_medium=api_v3_business_search&utm_source=OY9bhzgAA-Uo0FfcOdtyDQ", "review_count": 19, "categories": [{"alias": "newamerican", "title": "American (New)"}, {"alias": "cocktailbars", "title": "Cocktail Bars"}], "rating": 4.5, "coordinates": {"latitude": 40.7063449, "longitude": -74.0076944}, "transactions": [], "location": {"address1": "70 Pine St", "address2": null, "address3": "", "city": "New York", "zip_code": "10005", "country": "US", "state": "NY", "display_address": ["70 Pine St", "New York, NY 10005"]}, "phone": "+12125171932", "display_phone": "(212) 517-1932", "distance": 1142.221482327151}, {"id": "zRXMvxUX_rOliKZPpkWi_g", "alias": "valerie-new-york", "name": "Valerie", "image_url": "https://s3-media1.fl.yelpcdn.com/bphoto/ONswUNQ7qqqf9tJlfwVOZw/o.jpg", "is_closed": false, "url": "https://www.yelp.com/biz/valerie-new-york?adjust_creative=OY9bhzgAA-Uo0FfcOdtyDQ&utm_campaign=yelp_api_v3&utm_medium=api_v3_business_search&utm_source=OY9bhzgAA-Uo0FfcOdtyDQ", "review_count": 84, "categories": [{"alias": "bars", "title": "Bars"}, {"alias": "tradamerican", "title": "American (Traditional)"}], "rating": 4.5, "coordinates": {"latitude": 40.756354, "longitude": -73.981129}, "transactions": [], "location": {"address1": "45 W 45th St between 5th & 6th Ave", "address2": "", "address3": null, "city": "New York", "zip_code": "10036", "country": "US", "state": "NY", "display_address": ["45 W 45th St between 5th & 6th Ave", "New York, NY 10036"]}, "phone": "+12123024545", "display_phone": "(212) 302-4545", "distance": 5768.484688761251}, {"id": "6MgQz0SEOYUih2N5JOa6rg", "alias": "bh-kitchen-and-bar-new-york", "name": "BH Kitchen & Bar", "image_url": "https://s3-media4.fl.yelpcdn.com/bphoto/fJKeuH6KC8ZhK75pzRkXZQ/o.jpg", "is_closed": false, "url": "https://www.yelp.com/biz/bh-kitchen-and-bar-new-york?adjust_creative=OY9bhzgAA-Uo0FfcOdtyDQ&utm_campaign=yelp_api_v3&utm_medium=api_v3_business_search&utm_source=OY9bhzgAA-Uo0FfcOdtyDQ", "review_count": 102, "categories": [{"alias": "tradamerican", "title": "American (Traditional)"}, {"alias": "cocktailbars", "title": "Cocktail Bars"}, {"alias": "wine_bars", "title": "Wine Bars"}], "rating": 4.0, "coordinates": {"latitude": 40.75734, "longitude": -73.97656}, "transactions": ["restaurant_reservation"], "price": "$$", "location": {"address1": "20 E 49th St", "address2": "", "address3": null, "city": "New York", "zip_code": "10017", "country": "US", "state": "NY", "display_address": ["20 E 49th St", "New York, NY 10017"]}, "phone": "+12127552166", "display_phone": "(212) 755-2166", "distance": 5958.398882285857}, {"id": "x7hsZRd_MyrUgAW91FM9qA", "alias": "bensons-nyc-new-york", "name": "Benson's NYC", "image_url": "https://s3-media1.fl.yelpcdn.com/bphoto/IRDAMx_lRnwe36Uh0n8ZnA/o.jpg", "is_closed": false, "url": "https://www.yelp.com/biz/bensons-nyc-new-york?adjust_creative=OY9bhzgAA-Uo0FfcOdtyDQ&utm_campaign=yelp_api_v3&utm_medium=api_v3_business_search&utm_source=OY9bhzgAA-Uo0FfcOdtyDQ", "review_count": 339, "categories": [{"alias": "newamerican", "title": "American (New)"}, {"alias": "breakfast_brunch", "title": "Breakfast & Brunch"}, {"alias": "burgers", "title": "Burgers"}], "rating": 4.5, "coordinates": {"latitude": 40.7218302, "longitude": -73.9866963}, "transactions": ["delivery", "pickup", "restaurant_reservation"], "price": "$$", "location": {"address1": "181 Essex St", "address2": null, "address3": "", "city": "New York", "zip_code": "10002", "country": "US", "state": "NY", "display_address": ["181 Essex St", "New York, NY 10002"]}, "phone": "+16467915765", "display_phone": "(646) 791-5765", "distance": 1941.8805288539088}, {"id": "xt4sa64WOrpJvZBDPNPNYg", "alias": "jacobs-pickles-new-york", "name": "Jacob's Pickles", "image_url": "https://s3-media2.fl.yelpcdn.com/bphoto/167Rl2s1oMge_2ZSDD1z0A/o.jpg", "is_closed": false, "url": "https://www.yelp.com/biz/jacobs-pickles-new-york?adjust_creative=OY9bhzgAA-Uo0FfcOdtyDQ&utm_campaign=yelp_api_v3&utm_medium=api_v3_business_search&utm_source=OY9bhzgAA-Uo0FfcOdtyDQ", "review_count": 3621, "categories": [{"alias": "comfortfood", "title": "Comfort Food"}, {"alias": "southern", "title": "Southern"}, {"alias": "tradamerican", "title": "American (Traditional)"}], "rating": 4.0, "coordinates": {"latitude": 40.7866504411994, "longitude": -73.9755284786224}, "transactions": [], "price": "$$", "location": {"address1": "509 Amsterdam Ave", "address2": "", "address3": "", "city": "New York", "zip_code": "10024", "country": "US", "state": "NY", "display_address": ["509 Amsterdam Ave", "New York, NY 10024"]}, "phone": "+12124705566", "display_phone": "(212) 470-5566", "distance": 9166.964737863183}, {"id": "np98mkA22LYf6kCwCL59pw", "alias": "rabbithole-restaurant-brooklyn", "name": "Rabbithole Restaurant", "image_url": "https://s3-media2.fl.yelpcdn.com/bphoto/IDs9nOfcEsxFvz-RKRS7wg/o.jpg", "is_closed": false, "url": "https://www.yelp.com/biz/rabbithole-restaurant-brooklyn?adjust_creative=OY9bhzgAA-Uo0FfcOdtyDQ&utm_campaign=yelp_api_v3&utm_medium=api_v3_business_search&utm_source=OY9bhzgAA-Uo0FfcOdtyDQ", "review_count": 757, "categories": [{"alias": "newamerican", "title": "American (New)"}, {"alias": "breakfast_brunch", "title": "Breakfast & Brunch"}, {"alias": "cocktailbars", "title": "Cocktail Bars"}], "rating": 4.0, "coordinates": {"latitude": 40.7122932799856, "longitude": -73.9628687873483}, "transactions": [], "price": "$$", "location": {"address1": "352 Bedford Ave", "address2": "", "address3": "", "city": "Brooklyn", "zip_code": "11211", "country": "US", "state": "NY", "display_address": ["352 Bedford Ave", "Brooklyn, NY 11211"]}, "phone": "+17187820910", "display_phone": "(718) 782-0910", "distance": 2756.037998475819}, {"id": "MHtbBc2np3sR7jiV9GphNg", "alias": "tribecas-kitchen-new-york", "name": "Tribeca's Kitchen", "image_url": "https://s3-media3.fl.yelpcdn.com/bphoto/XJXRVbw9u67kfHsIlzVVfA/o.jpg", "is_closed": false, "url": "https://www.yelp.com/biz/tribecas-kitchen-new-york?adjust_creative=OY9bhzgAA-Uo0FfcOdtyDQ&utm_campaign=yelp_api_v3&utm_medium=api_v3_business_search&utm_source=OY9bhzgAA-Uo0FfcOdtyDQ", "review_count": 408, "categories": [{"alias": "newamerican", "title": "American (New)"}, {"alias": "breakfast_brunch", "title": "Breakfast & Brunch"}, {"alias": "diners", "title": "Diners"}], "rating": 4.0, "coordinates": {"latitude": 40.7162705535921, "longitude": -74.0072225927912}, "transactions": ["delivery", "pickup", "restaurant_reservation"], "price": "$$", "location": {"address1": "200 Church St", "address2": "", "address3": "", "city": "New York", "zip_code": "10013", "country": "US", "state": "NY", "display_address": ["200 Church St", "New York, NY 10013"]}, "phone": "+12122275100", "display_phone": "(212) 227-5100", "distance": 1623.7772210156222}, {"id": "uoT2_Wrt1noD6kZOID7tUg", "alias": "jane-new-york-2", "name": "Jane", "image_url": "https://s3-media1.fl.yelpcdn.com/bphoto/Q5yrDsPb-Tb7eFQ5s_UB3w/o.jpg", "is_closed": false, "url": "https://www.yelp.com/biz/jane-new-york-2?adjust_creative=OY9bhzgAA-Uo0FfcOdtyDQ&utm_campaign=yelp_api_v3&utm_medium=api_v3_business_search&utm_source=OY9bhzgAA-Uo0FfcOdtyDQ", "review_count": 3032, "categories": [{"alias": "breakfast_brunch", "title": "Breakfast & Brunch"}, {"alias": "newamerican", "title": "American (New)"}, {"alias": "bars", "title": "Bars"}], "rating": 4.0, "coordinates": {"latitude": 40.72732, "longitude": -74.00026}, "transactions": ["delivery", "pickup"], "price": "$$", "location": {"address1": "100 W Houston St", "address2": "", "address3": "", "city": "New York", "zip_code": "10012", "country": "US", "state": "NY", "display_address": ["100 W Houston St", "New York, NY 10012"]}, "phone": "+12122547000", "display_phone": "(212) 254-7000", "distance": 2489.0891583664493}, {"id": "eTR6nfHvQzvKX7Dcd6JrfA", "alias": "district-social-new-york", "name": "District Social", "image_url": "https://s3-media4.fl.yelpcdn.com/bphoto/1H7eaiTAQ_3ueCOHON7N_Q/o.jpg", "is_closed": false, "url": "https://www.yelp.com/biz/district-social-new-york?adjust_creative=OY9bhzgAA-Uo0FfcOdtyDQ&utm_campaign=yelp_api_v3&utm_medium=api_v3_business_search&utm_source=OY9bhzgAA-Uo0FfcOdtyDQ", "review_count": 568, "categories": [{"alias": "bars", "title": "Bars"}, {"alias": "newamerican", "title": "American (New)"}], "rating": 4.0, "coordinates": {"latitude": 40.75369, "longitude": -73.99136}, "transactions": ["restaurant_reservation"], "price": "$$", "location": {"address1": "252 W 37th St", "address2": null, "address3": "", "city": "New York", "zip_code": "10018", "country": "US", "state": "NY", "display_address": ["252 W 37th St", "New York, NY 10018"]}, "phone": "+12129949599", "display_phone": "(212) 994-9599", "distance": 5363.40804598862}, {"id": "BQRfaq0U75B5EEblBZ2Aqg", "alias": "the-ribbon-new-york-5", "name": "The Ribbon", "image_url": "https://s3-media4.fl.yelpcdn.com/bphoto/PAm9Ef5lUoe8N8c4oI6-fg/o.jpg", "is_closed": false, "url": "https://www.yelp.com/biz/the-ribbon-new-york-5?adjust_creative=OY9bhzgAA-Uo0FfcOdtyDQ&utm_campaign=yelp_api_v3&utm_medium=api_v3_business_search&utm_source=OY9bhzgAA-Uo0FfcOdtyDQ", "review_count": 47, "categories": [{"alias": "newamerican", "title": "American (New)"}, {"alias": "bars", "title": "Bars"}], "rating": 4.0, "coordinates": {"latitude": 40.7576, "longitude": -73.98693}, "transactions": ["delivery", "pickup"], "location": {"address1": "220 West 44th St", "address2": null, "address3": "", "city": "New York", "zip_code": "10036", "country": "US", "state": "NY", "display_address": ["220 West 44th St", "New York, NY 10036"]}, "phone": "+12129442474", "display_phone": "(212) 944-2474", "distance": 5835.886331195466}, {"id": "9AXTJkwXdWaJaQkCjpj6mA", "alias": "sunday-in-brooklyn-brooklyn-3", "name": "Sunday in Brooklyn", "image_url": "https://s3-media2.fl.yelpcdn.com/bphoto/aQ6Q-J6s4imnnsxnfVASjw/o.jpg", "is_closed": false, "url": "https://www.yelp.com/biz/sunday-in-brooklyn-brooklyn-3?adjust_creative=OY9bhzgAA-Uo0FfcOdtyDQ&utm_campaign=yelp_api_v3&utm_medium=api_v3_business_search&utm_source=OY9bhzgAA-Uo0FfcOdtyDQ", "review_count": 547, "categories": [{"alias": "newamerican", "title": "American (New)"}, {"alias": "breakfast_brunch", "title": "Breakfast & Brunch"}, {"alias": "cocktailbars", "title": "Cocktail Bars"}], "rating": 4.0, "coordinates": {"latitude": 40.714145, "longitude": -73.965322}, "transactions": ["delivery", "pickup"], "price": "$$", "location": {"address1": "348 Wythe Ave", "address2": "", "address3": null, "city": "Brooklyn", "zip_code": "11249", "country": "US", "state": "NY", "display_address": ["348 Wythe Ave", "Brooklyn, NY 11249"]}, "phone": "+13472226722", "display_phone": "(347) 222-6722", "distance": 2626.5777794971095}, {"id": "cCesIqo-LQt0cRlZAnrAZQ", "alias": "friedmans-new-york-59", "name": "Friedman's", "image_url": "https://s3-media1.fl.yelpcdn.com/bphoto/QI4c9-p60ZEXOU8XSHNv-A/o.jpg", "is_closed": false, "url": "https://www.yelp.com/biz/friedmans-new-york-59?adjust_creative=OY9bhzgAA-Uo0FfcOdtyDQ&utm_campaign=yelp_api_v3&utm_medium=api_v3_business_search&utm_source=OY9bhzgAA-Uo0FfcOdtyDQ", "review_count": 2086, "categories": [{"alias": "newamerican", "title": "American (New)"}, {"alias": "gluten_free", "title": "Gluten-Free"}, {"alias": "breakfast_brunch", "title": "Breakfast & Brunch"}], "rating": 4.0, "coordinates": {"latitude": 40.748297, "longitude": -73.990649}, "transactions": ["delivery", "pickup"], "price": "$$", "location": {"address1": "132 W 31st St", "address2": "", "address3": "", "city": "New York", "zip_code": "10001", "country": "US", "state": "NY", "display_address": ["132 W 31st St", "New York, NY 10001"]}, "phone": "+12129719400", "display_phone": "(212) 971-9400", "distance": 4774.819882592068}, {"id": "IOHaEgK1zDvUvB3SfKuGCw", "alias": "parker-and-quinn-new-york", "name": "Parker & Quinn", "image_url": "https://s3-media4.fl.yelpcdn.com/bphoto/6xuN0yyAi9PaxSAVVAgfrg/o.jpg", "is_closed": false, "url": "https://www.yelp.com/biz/parker-and-quinn-new-york?adjust_creative=OY9bhzgAA-Uo0FfcOdtyDQ&utm_campaign=yelp_api_v3&utm_medium=api_v3_business_search&utm_source=OY9bhzgAA-Uo0FfcOdtyDQ", "review_count": 1215, "categories": [{"alias": "newamerican", "title": "American (New)"}, {"alias": "bars", "title": "Bars"}, {"alias": "breakfast_brunch", "title": "Breakfast & Brunch"}], "rating": 4.0, "coordinates": {"latitude": 40.75264, "longitude": -73.98502}, "transactions": ["delivery", "pickup"], "price": "$$", "location": {"address1": "64 W 39th St", "address2": "", "address3": "", "city": "New York", "zip_code": "10018", "country": "US", "state": "NY", "display_address": ["64 W 39th St", "New York, NY 10018"]}, "phone": "+12127290277", "display_phone": "(212) 729-0277", "distance": 5302.371495533377}, {"id": "sVG1whNWHhlbjP6p027YcA", "alias": "brindle-room-new-york", "name": "Brindle Room", "image_url": "https://s3-media1.fl.yelpcdn.com/bphoto/TFpexrVPTgN9eAn6VSNNow/o.jpg", "is_closed": false, "url": "https://www.yelp.com/biz/brindle-room-new-york?adjust_creative=OY9bhzgAA-Uo0FfcOdtyDQ&utm_campaign=yelp_api_v3&utm_medium=api_v3_business_search&utm_source=OY9bhzgAA-Uo0FfcOdtyDQ", "review_count": 973, "categories": [{"alias": "newamerican", "title": "American (New)"}, {"alias": "bars", "title": "Bars"}, {"alias": "breakfast_brunch", "title": "Breakfast & Brunch"}], "rating": 4.0, "coordinates": {"latitude": 40.72829, "longitude": -73.98271}, "transactions": ["delivery", "pickup"], "price": "$$", "location": {"address1": "277 E 10th St", "address2": "", "address3": "", "city": "New York", "zip_code": "10009", "country": "US", "state": "NY", "display_address": ["277 E 10th St", "New York, NY 10009"]}, "phone": "+12125299702", "display_phone": "(212) 529-9702", "distance": 2721.406464872305}, {"id": "Xu8H24NxJJxEE-9wGp_AMA", "alias": "the-brazen-tavern-new-york", "name": "The Brazen Tavern", "image_url": "https://s3-media1.fl.yelpcdn.com/bphoto/nwiNdF2nps6Lvbu7EihGbA/o.jpg", "is_closed": false, "url": "https://www.yelp.com/biz/the-brazen-tavern-new-york?adjust_creative=OY9bhzgAA-Uo0FfcOdtyDQ&utm_campaign=yelp_api_v3&utm_medium=api_v3_business_search&utm_source=OY9bhzgAA-Uo0FfcOdtyDQ", "review_count": 293, "categories": [{"alias": "bars", "title": "Bars"}, {"alias": "newamerican", "title": "American (New)"}], "rating": 4.5, "coordinates": {"latitude": 40.7593269348145, "longitude": -73.9913101196289}, "transactions": ["restaurant_reservation"], "price": "$$", "location": {"address1": "356 W 44th St", "address2": "", "address3": "", "city": "New York", "zip_code": "10036", "country": "US", "state": "NY", "display_address": ["356 W 44th St", "New York, NY 10036"]}, "phone": "+16466785989", "display_phone": "(646) 678-5989", "distance": 5998.398762920218}, {"id": "Xd_l7jtUAZZAAvK8-mI2Jw", "alias": "the-smith-new-york-7", "name": "The Smith", "image_url": "https://s3-media3.fl.yelpcdn.com/bphoto/742_d5m74Jc0HSztyGL7vw/o.jpg", "is_closed": false, "url": "https://www.yelp.com/biz/the-smith-new-york-7?adjust_creative=OY9bhzgAA-Uo0FfcOdtyDQ&utm_campaign=yelp_api_v3&utm_medium=api_v3_business_search&utm_source=OY9bhzgAA-Uo0FfcOdtyDQ", "review_count": 796, "categories": [{"alias": "newamerican", "title": "American (New)"}, {"alias": "breakfast_brunch", "title": "Breakfast & Brunch"}, {"alias": "cocktailbars", "title": "Cocktail Bars"}], "rating": 4.0, "coordinates": {"latitude": 40.74424, "longitude": -73.98878}, "transactions": ["delivery", "pickup"], "price": "$$", "location": {"address1": "1150 Broadway", "address2": "", "address3": "", "city": "New York", "zip_code": "10010", "country": "US", "state": "NY", "display_address": ["1150 Broadway", "New York, NY 10010"]}, "phone": "+12126854500", "display_phone": "(212) 685-4500", "distance": 4343.715231103969}], "total": 8300, "region": {"center": {"longitude": -73.99429321289062, "latitude": 40.70544486444615}}}