{"businesses": [{"id": "jfNc9_Of6ojLl4DVG9QKCw", "alias": "san-pedro-brooklyn-2", "name": "San Pedro", "image_url": "https://s3-media1.fl.yelpcdn.com/bphoto/8hvLeRU96ZtpqatgAAY-HQ/o.jpg", "is_closed": false, "url": "https://www.yelp.com/biz/san-pedro-brooklyn-2?adjust_creative=OY9bhzgAA-Uo0FfcOdtyDQ&utm_campaign=yelp_api_v3&utm_medium=api_v3_business_search&utm_source=OY9bhzgAA-Uo0FfcOdtyDQ", "review_count": 1, "categories": [{"alias": "bars", "title": "Bars"}, {"alias": "tacos", "title": "Tacos"}], "rating": 5.0, "coordinates": {"latitude": 40.67908, "longitude": -74.01106}, "transactions": [], "location": {"address1": "320 Van Brunt St", "address2": "", "address3": null, "city": "Brooklyn", "zip_code": "11231", "country": "US", "state": "NY", "display_address": ["320 Van Brunt St", "Brooklyn, NY 11231"]}, "phone": "+17185763916", "display_phone": "(718) 576-3916", "distance": 3253.506032554299}, {"id": "JmVm97rI9PbxqK85flMZuw", "alias": "the-lighthouse-dumbo", "name": "The Lighthouse", "image_url": "https://s3-media3.fl.yelpcdn.com/bphoto/F92QSgcbrApLW19bp8tx5Q/o.jpg", "is_closed": false, "url": "https://www.yelp.com/biz/the-lighthouse-dumbo?adjust_creative=OY9bhzgAA-Uo0FfcOdtyDQ&utm_campaign=yelp_api_v3&utm_medium=api_v3_business_search&utm_source=OY9bhzgAA-Uo0FfcOdtyDQ", "review_count": 9, "categories": [{"alias": "beergardens", "title": "Beer Gardens"}], "rating": 4.5, "coordinates": {"latitude": 40.7031980906036, "longitude": -73.9882196833283}, "transactions": [], "price": "$$", "location": {"address1": "29 Adams St", "address2": "", "address3": "", "city": "Dumbo", "zip_code": "11201", "country": "US", "state": "NY", "display_address": ["29 Adams St", "Dumbo, NY 11201"]}, "phone": "+16463423033", "display_phone": "(646) 342-3033", "distance": 569.6727407483812}, {"id": "RemvTpxalDjSew5HwmNzUQ", "alias": "the-dead-rabbit-new-york", "name": "The Dead Rabbit", "image_url": "https://s3-media2.fl.yelpcdn.com/bphoto/_4T5R0HHhASROheby-TXDA/o.jpg", "is_closed": false, "url": "https://www.yelp.com/biz/the-dead-rabbit-new-york?adjust_creative=OY9bhzgAA-Uo0FfcOdtyDQ&utm_campaign=yelp_api_v3&utm_medium=api_v3_business_search&utm_source=OY9bhzgAA-Uo0FfcOdtyDQ", "review_count": 1410, "categories": [{"alias": "cocktailbars", "title": "Cocktail Bars"}], "rating": 4.0, "coordinates": {"latitude": 40.70329, "longitude": -74.01102}, "transactions": [], "price": "$$", "location": {"address1": "30 Water St", "address2": "", "address3": "", "city": "New York", "zip_code": "10004", "country": "US", "state": "NY", "display_address": ["30 Water St", "New York, NY 10004"]}, "phone": "+16464227906", "display_phone": "(646) 422-7906", "distance": 1431.0399855447463}, {"id": "AydiQxXWQLqVrZ9sEZTxtw", "alias": "the-ship-new-york", "name": "The Ship", "image_url": "https://s3-media2.fl.yelpcdn.com/bphoto/aR-_vRSlhIweJdDoE3nTcw/o.jpg", "is_closed": false, "url": "https://www.yelp.com/biz/the-ship-new-york?adjust_creative=OY9bhzgAA-Uo0FfcOdtyDQ&utm_campaign=yelp_api_v3&utm_medium=api_v3_business_search&utm_source=OY9bhzgAA-Uo0FfcOdtyDQ", "review_count": 306, "categories": [{"alias": "cocktailbars", "title": "Cocktail Bars"}, {"alias": "lounges", "title": "Lounges"}, {"alias": "venues", "title": "Venues & Event Spaces"}], "rating": 4.0, "coordinates": {"latitude": 40.7198443, "longitude": -73.99947}, "transactions": [], "price": "$$", "location": {"address1": "158 Lafayette St", "address2": "", "address3": "", "city": "New York", "zip_code": "10013", "country": "US", "state": "NY", "display_address": ["158 Lafayette St", "New York, NY 10013"]}, "phone": "+12122198496", "display_phone": "(212) 219-8496", "distance": 1659.5285792798718}, {"id": "5Fz1WlY3lxy8gJFs8s_1Dw", "alias": "the-binc-brooklyn", "name": "The Binc", "image_url": "https://s3-media3.fl.yelpcdn.com/bphoto/RK3WuC6Nowcz2r2UeEO79Q/o.jpg", "is_closed": false, "url": "https://www.yelp.com/biz/the-binc-brooklyn?adjust_creative=OY9bhzgAA-Uo0FfcOdtyDQ&utm_campaign=yelp_api_v3&utm_medium=api_v3_business_search&utm_source=OY9bhzgAA-Uo0FfcOdtyDQ", "review_count": 58, "categories": [{"alias": "cocktailbars", "title": "Cocktail Bars"}, {"alias": "tapasmallplates", "title": "Tapas/Small Plates"}], "rating": 4.5, "coordinates": {"latitude": 40.6992682, "longitude": -73.9923109}, "transactions": [], "price": "$$", "location": {"address1": "60 Henry St", "address2": null, "address3": "", "city": "Brooklyn", "zip_code": "11201", "country": "US", "state": "NY", "display_address": ["60 Henry St", "Brooklyn, NY 11201"]}, "phone": "+17186241444", "display_phone": "(718) 624-1444", "distance": 715.0007787095552}, {"id": "zWrZBXj5F2V_0UknnTfqbw", "alias": "the-up-and-up-new-york-2", "name": "The Up & Up", "image_url": "https://s3-media2.fl.yelpcdn.com/bphoto/PjivAhOykU5fiHN2f_bFig/o.jpg", "is_closed": false, "url": "https://www.yelp.com/biz/the-up-and-up-new-york-2?adjust_creative=OY9bhzgAA-Uo0FfcOdtyDQ&utm_campaign=yelp_api_v3&utm_medium=api_v3_business_search&utm_source=OY9bhzgAA-Uo0FfcOdtyDQ", "review_count": 381, "categories": [{"alias": "cocktailbars", "title": "Cocktail Bars"}], "rating": 4.0, "coordinates": {"latitude": 40.7295104447158, "longitude": -74.0006693438721}, "transactions": [], "price": "$$", "location": {"address1": "116 MacDougal St", "address2": "", "address3": "", "city": "New York", "zip_code": "10012", "country": "US", "state": "NY", "display_address": ["116 MacDougal St", "New York, NY 10012"]}, "phone": "+12122603000", "display_phone": "(212) 260-3000", "distance": 2729.3898625454526}, {"id": "P3NfoMjBy_o2BTNNZ-5okg", "alias": "apoth\u00e8ke-new-york-3", "name": "Apoth\u00e8ke", "image_url": "https://s3-media4.fl.yelpcdn.com/bphoto/stALaZ6bk_gf-kqEs6e3hw/o.jpg", "is_closed": false, "url": "https://www.yelp.com/biz/apoth%C3%A8ke-new-york-3?adjust_creative=OY9bhzgAA-Uo0FfcOdtyDQ&utm_campaign=yelp_api_v3&utm_medium=api_v3_business_search&utm_source=OY9bhzgAA-Uo0FfcOdtyDQ", "review_count": 1388, "categories": [{"alias": "lounges", "title": "Lounges"}, {"alias": "cocktailbars", "title": "Cocktail Bars"}], "rating": 4.0, "coordinates": {"latitude": 40.71439, "longitude": -73.99815}, "transactions": [], "price": "$$$", "location": {"address1": "9 Doyers St", "address2": "", "address3": "", "city": "New York", "zip_code": "10013", "country": "US", "state": "NY", "display_address": ["9 Doyers St", "New York, NY 10013"]}, "phone": "+12124060400", "display_phone": "(212) 406-0400", "distance": 1046.4268255165646}, {"id": "mcoY5kjynQ6aNnzKhgeOxw", "alias": "dusk-til-dawn-bar-and-lounge-brooklyn", "name": "Dusk Til Dawn Bar & Lounge", "image_url": "https://s3-media2.fl.yelpcdn.com/bphoto/hmD19FC7z8n9Q4uDgBzAmA/o.jpg", "is_closed": false, "url": "https://www.yelp.com/biz/dusk-til-dawn-bar-and-lounge-brooklyn?adjust_creative=OY9bhzgAA-Uo0FfcOdtyDQ&utm_campaign=yelp_api_v3&utm_medium=api_v3_business_search&utm_source=OY9bhzgAA-Uo0FfcOdtyDQ", "review_count": 2, "categories": [{"alias": "bars", "title": "Bars"}, {"alias": "seafood", "title": "Seafood"}, {"alias": "bbq", "title": "Barbeque"}], "rating": 3.5, "coordinates": {"latitude": 40.69174, "longitude": -73.93943}, "transactions": [], "location": {"address1": "193 Marcus Garvey Blvd", "address2": null, "address3": "", "city": "Brooklyn", "zip_code": "11221", "country": "US", "state": "NY", "display_address": ["193 Marcus Garvey Blvd", "Brooklyn, NY 11221"]}, "phone": "+13475335199", "display_phone": "(347) 533-5199", "distance": 4863.663082982735}, {"id": "H8mnryiCI02N00g9vuFDLg", "alias": "the-library-new-york", "name": "The Library", "image_url": "https://s3-media3.fl.yelpcdn.com/bphoto/2xx6w218vqXtldmVT5jInA/o.jpg", "is_closed": false, "url": "https://www.yelp.com/biz/the-library-new-york?adjust_creative=OY9bhzgAA-Uo0FfcOdtyDQ&utm_campaign=yelp_api_v3&utm_medium=api_v3_business_search&utm_source=OY9bhzgAA-Uo0FfcOdtyDQ", "review_count": 397, "categories": [{"alias": "divebars", "title": "Dive Bars"}], "rating": 4.0, "coordinates": {"latitude": 40.7226142883301, "longitude": -73.9863433837891}, "transactions": [], "price": "$", "location": {"address1": "7 Ave A", "address2": "", "address3": "", "city": "New York", "zip_code": "10009", "country": "US", "state": "NY", "display_address": ["7 Ave A", "New York, NY 10009"]}, "phone": "+12123751352", "display_phone": "(212) 375-1352", "distance": 2022.6023880642597}, {"id": "iM3zYjjmnJ06VVmxvTo9eQ", "alias": "nitecap-new-york", "name": "Nitecap", "image_url": "https://s3-media1.fl.yelpcdn.com/bphoto/ebbPQuhqhshVZXPynSJfIw/o.jpg", "is_closed": false, "url": "https://www.yelp.com/biz/nitecap-new-york?adjust_creative=OY9bhzgAA-Uo0FfcOdtyDQ&utm_campaign=yelp_api_v3&utm_medium=api_v3_business_search&utm_source=OY9bhzgAA-Uo0FfcOdtyDQ", "review_count": 298, "categories": [{"alias": "cocktailbars", "title": "Cocktail Bars"}], "rating": 4.0, "coordinates": {"latitude": 40.719125, "longitude": -73.985732}, "transactions": [], "price": "$$", "location": {"address1": "151 Rivington St", "address2": "", "address3": "", "city": "New York", "zip_code": "10002", "country": "US", "state": "NY", "display_address": ["151 Rivington St", "New York, NY 10002"]}, "phone": "", "display_phone": "", "distance": 1683.6295997443785}, {"id": "zvxUXRQOqzsyFiCKS09_JQ", "alias": "botanica-bar-new-york", "name": "Botanica Bar", "image_url": "https://s3-media1.fl.yelpcdn.com/bphoto/lOFj1GtSNQLgrh1H9J_mwA/o.jpg", "is_closed": false, "url": "https://www.yelp.com/biz/botanica-bar-new-york?adjust_creative=OY9bhzgAA-Uo0FfcOdtyDQ&utm_campaign=yelp_api_v3&utm_medium=api_v3_business_search&utm_source=OY9bhzgAA-Uo0FfcOdtyDQ", "review_count": 351, "categories": [{"alias": "bars", "title": "Bars"}], "rating": 4.0, "coordinates": {"latitude": 40.72459, "longitude": -73.99478}, "transactions": [], "price": "$", "location": {"address1": "47 E Houston St", "address2": "Ste B", "address3": "", "city": "New York", "zip_code": "10012", "country": "US", "state": "NY", "display_address": ["47 E Houston St", "Ste B", "New York, NY 10012"]}, "phone": "+12123437251", "display_phone": "(212) 343-7251", "distance": 2132.280745842899}, {"id": "H7S7-vF2z_HfaLo6BGPetw", "alias": "attaboy-new-york", "name": "Attaboy", "image_url": "https://s3-media1.fl.yelpcdn.com/bphoto/SzHVX7EVQHrCwr8DNGyI6g/o.jpg", "is_closed": false, "url": "https://www.yelp.com/biz/attaboy-new-york?adjust_creative=OY9bhzgAA-Uo0FfcOdtyDQ&utm_campaign=yelp_api_v3&utm_medium=api_v3_business_search&utm_source=OY9bhzgAA-Uo0FfcOdtyDQ", "review_count": 483, "categories": [{"alias": "cocktailbars", "title": "Cocktail Bars"}, {"alias": "speakeasies", "title": "Speakeasies"}], "rating": 4.0, "coordinates": {"latitude": 40.7188874, "longitude": -73.9913351}, "transactions": [], "price": "$$$", "location": {"address1": "134 Eldridge St", "address2": "", "address3": "", "city": "New York", "zip_code": "10002", "country": "US", "state": "NY", "display_address": ["134 Eldridge St", "New York, NY 10002"]}, "phone": "", "display_phone": "", "distance": 1515.3913620379014}, {"id": "c3Ww3pgeHjBi3ctkeUWrjQ", "alias": "whiskey-tavern-new-york", "name": "Whiskey Tavern", "image_url": "https://s3-media1.fl.yelpcdn.com/bphoto/P3eezkfdJ1cP3Z34T5Kmyg/o.jpg", "is_closed": false, "url": "https://www.yelp.com/biz/whiskey-tavern-new-york?adjust_creative=OY9bhzgAA-Uo0FfcOdtyDQ&utm_campaign=yelp_api_v3&utm_medium=api_v3_business_search&utm_source=OY9bhzgAA-Uo0FfcOdtyDQ", "review_count": 748, "categories": [{"alias": "whiskeybars", "title": "Whiskey Bars"}], "rating": 4.5, "coordinates": {"latitude": 40.71646, "longitude": -73.99969}, "transactions": [], "price": "$$", "location": {"address1": "79 Baxter St", "address2": "", "address3": "", "city": "New York", "zip_code": "10013", "country": "US", "state": "NY", "display_address": ["79 Baxter St", "New York, NY 10013"]}, "phone": "+12123749119", "display_phone": "(212) 374-9119", "distance": 1307.2374759358268}, {"id": "J4pAppaiXwCkbLOGc4wHww", "alias": "raines-law-room-new-york", "name": "Raines Law Room", "image_url": "https://s3-media2.fl.yelpcdn.com/bphoto/CHWNi0sxLuPRDs39PP834A/o.jpg", "is_closed": false, "url": "https://www.yelp.com/biz/raines-law-room-new-york?adjust_creative=OY9bhzgAA-Uo0FfcOdtyDQ&utm_campaign=yelp_api_v3&utm_medium=api_v3_business_search&utm_source=OY9bhzgAA-Uo0FfcOdtyDQ", "review_count": 1392, "categories": [{"alias": "lounges", "title": "Lounges"}, {"alias": "cocktailbars", "title": "Cocktail Bars"}], "rating": 4.5, "coordinates": {"latitude": 40.73869, "longitude": -73.99462}, "transactions": ["restaurant_reservation"], "price": "$$$", "location": {"address1": "48 W 17th St", "address2": "", "address3": "", "city": "New York", "zip_code": "10011", "country": "US", "state": "NY", "display_address": ["48 W 17th St", "New York, NY 10011"]}, "phone": "", "display_phone": "", "distance": 3698.8379998528653}, {"id": "eTR6nfHvQzvKX7Dcd6JrfA", "alias": "district-social-new-york", "name": "District Social", "image_url": "https://s3-media4.fl.yelpcdn.com/bphoto/1H7eaiTAQ_3ueCOHON7N_Q/o.jpg", "is_closed": false, "url": "https://www.yelp.com/biz/district-social-new-york?adjust_creative=OY9bhzgAA-Uo0FfcOdtyDQ&utm_campaign=yelp_api_v3&utm_medium=api_v3_business_search&utm_source=OY9bhzgAA-Uo0FfcOdtyDQ", "review_count": 568, "categories": [{"alias": "bars", "title": "Bars"}, {"alias": "newamerican", "title": "American (New)"}], "rating": 4.0, "coordinates": {"latitude": 40.75369, "longitude": -73.99136}, "transactions": ["restaurant_reservation"], "price": "$$", "location": {"address1": "252 W 37th St", "address2": null, "address3": "", "city": "New York", "zip_code": "10018", "country": "US", "state": "NY", "display_address": ["252 W 37th St", "New York, NY 10018"]}, "phone": "+12129949599", "display_phone": "(212) 994-9599", "distance": 5363.40804598862}, {"id": "gjwELZmHUNO0WdqXYBEbcg", "alias": "the-belfry-new-york", "name": "The Belfry", "image_url": "https://s3-media1.fl.yelpcdn.com/bphoto/CBRQrJurpOpCcSx5RbMf3w/o.jpg", "is_closed": false, "url": "https://www.yelp.com/biz/the-belfry-new-york?adjust_creative=OY9bhzgAA-Uo0FfcOdtyDQ&utm_campaign=yelp_api_v3&utm_medium=api_v3_business_search&utm_source=OY9bhzgAA-Uo0FfcOdtyDQ", "review_count": 476, "categories": [{"alias": "cocktailbars", "title": "Cocktail Bars"}], "rating": 4.0, "coordinates": {"latitude": 40.7326393127441, "longitude": -73.9863739013672}, "transactions": [], "price": "$$", "location": {"address1": "222 E 14th St", "address2": null, "address3": "", "city": "New York", "zip_code": "10003", "country": "US", "state": "NY", "display_address": ["222 E 14th St", "New York, NY 10003"]}, "phone": "+12124736590", "display_phone": "(212) 473-6590", "distance": 3097.2137662966456}, {"id": "_Tn0eN5E37WBf8oVdOA9BA", "alias": "1-rooftop-garden-and-bar-brooklyn", "name": "1 Rooftop Garden & Bar", "image_url": "https://s3-media2.fl.yelpcdn.com/bphoto/8XrIcdE1Nt5b8pFHpOmpuQ/o.jpg", "is_closed": false, "url": "https://www.yelp.com/biz/1-rooftop-garden-and-bar-brooklyn?adjust_creative=OY9bhzgAA-Uo0FfcOdtyDQ&utm_campaign=yelp_api_v3&utm_medium=api_v3_business_search&utm_source=OY9bhzgAA-Uo0FfcOdtyDQ", "review_count": 37, "categories": [{"alias": "bars", "title": "Bars"}], "rating": 3.0, "coordinates": {"latitude": 40.70224, "longitude": -73.99554}, "transactions": [], "price": "$$$", "location": {"address1": "60 Furman St", "address2": null, "address3": "", "city": "Brooklyn", "zip_code": "11201", "country": "US", "state": "NY", "display_address": ["60 Furman St", "Brooklyn, NY 11201"]}, "phone": "+13476962505", "display_phone": "(347) 696-2505", "distance": 422.18491172085606}, {"id": "511OTzlr0FkL4esfBxMzIw", "alias": "rooftop-93-new-york-5", "name": "Rooftop 93", "image_url": "https://s3-media4.fl.yelpcdn.com/bphoto/frQkLpWVTPl7CPv613ypMA/o.jpg", "is_closed": false, "url": "https://www.yelp.com/biz/rooftop-93-new-york-5?adjust_creative=OY9bhzgAA-Uo0FfcOdtyDQ&utm_campaign=yelp_api_v3&utm_medium=api_v3_business_search&utm_source=OY9bhzgAA-Uo0FfcOdtyDQ", "review_count": 291, "categories": [{"alias": "lounges", "title": "Lounges"}, {"alias": "cocktailbars", "title": "Cocktail Bars"}], "rating": 4.0, "coordinates": {"latitude": 40.7171, "longitude": -73.99533}, "transactions": [], "price": "$$", "location": {"address1": "93 Bowery", "address2": "", "address3": "", "city": "New York", "zip_code": "10002", "country": "US", "state": "NY", "display_address": ["93 Bowery", "New York, NY 10002"]}, "phone": "+12129669033", "display_phone": "(212) 966-9033", "distance": 1289.2345583065007}, {"id": "X_2RR5F7Bq3jos28dQuvlg", "alias": "ward-iii-new-york", "name": "Ward III", "image_url": "https://s3-media3.fl.yelpcdn.com/bphoto/KDSVc0Ui1J86yBbRmFFTWQ/o.jpg", "is_closed": false, "url": "https://www.yelp.com/biz/ward-iii-new-york?adjust_creative=OY9bhzgAA-Uo0FfcOdtyDQ&utm_campaign=yelp_api_v3&utm_medium=api_v3_business_search&utm_source=OY9bhzgAA-Uo0FfcOdtyDQ", "review_count": 442, "categories": [{"alias": "lounges", "title": "Lounges"}, {"alias": "cocktailbars", "title": "Cocktail Bars"}], "rating": 4.0, "coordinates": {"latitude": 40.7157247, "longitude": -74.0087103}, "transactions": [], "price": "$$", "location": {"address1": "111 Reade St", "address2": "", "address3": "", "city": "New York", "zip_code": "10013", "country": "US", "state": "NY", "display_address": ["111 Reade St", "New York, NY 10013"]}, "phone": "+12122409194", "display_phone": "(212) 240-9194", "distance": 1668.3070740821586}, {"id": "X0f9UYHoE4OxnuUq801vMg", "alias": "the-upstairs-at-66-new-york", "name": "The Upstairs at 66", "image_url": "https://s3-media2.fl.yelpcdn.com/bphoto/c_WwfhXt-bO1N4vcpPoCQw/o.jpg", "is_closed": false, "url": "https://www.yelp.com/biz/the-upstairs-at-66-new-york?adjust_creative=OY9bhzgAA-Uo0FfcOdtyDQ&utm_campaign=yelp_api_v3&utm_medium=api_v3_business_search&utm_source=OY9bhzgAA-Uo0FfcOdtyDQ", "review_count": 6, "categories": [{"alias": "lounges", "title": "Lounges"}, {"alias": "arcades", "title": "Arcades"}, {"alias": "speakeasies", "title": "Speakeasies"}], "rating": 5.0, "coordinates": {"latitude": 40.70418, "longitude": -74.01048}, "transactions": [], "location": {"address1": "46 Stone St", "address2": null, "address3": "", "city": "New York", "zip_code": "10004", "country": "US", "state": "NY", "display_address": ["46 Stone St", "New York, NY 10004"]}, "phone": "+12129431602", "display_phone": "(212) 943-1602", "distance": 1372.1057452096138}], "total": 6200, "region": {"center": {"longitude": -73.99429321289062, "latitude": 40.70544486444615}}}