{"businesses": [{"id": "Ms3CAGddVbgetiQrpzqxPQ", "alias": "hometown-bar-b-que-brooklyn-3", "name": "Hometown Bar-B-Que", "image_url": "https://s3-media2.fl.yelpcdn.com/bphoto/Eo9NJvaF8j9HLa0GX9yNUA/o.jpg", "is_closed": false, "url": "https://www.yelp.com/biz/hometown-bar-b-que-brooklyn-3?adjust_creative=OY9bhzgAA-Uo0FfcOdtyDQ&utm_campaign=yelp_api_v3&utm_medium=api_v3_business_search&utm_source=OY9bhzgAA-Uo0FfcOdtyDQ", "review_count": 1189, "categories": [{"alias": "bbq", "title": "Barbeque"}, {"alias": "smokehouse", "title": "Smokehouse"}], "rating": 4.0, "coordinates": {"latitude": 40.6748965703426, "longitude": -74.0160489746129}, "transactions": [], "price": "$$", "location": {"address1": "454 Van Brunt St", "address2": "", "address3": null, "city": "Brooklyn", "zip_code": "11231", "country": "US", "state": "NY", "display_address": ["454 Van Brunt St", "Brooklyn, NY 11231"]}, "phone": "+13472944644", "display_phone": "(347) 294-4644", "distance": 3860.4357473559635}, {"id": "LsITU8KVYMhV_fatv84wWA", "alias": "mighty-quinns-barbeque-new-york", "name": "Mighty Quinn's Barbeque", "image_url": "https://s3-media3.fl.yelpcdn.com/bphoto/m5s9mIn8YTJhGrVCrCieJA/o.jpg", "is_closed": false, "url": "https://www.yelp.com/biz/mighty-quinns-barbeque-new-york?adjust_creative=OY9bhzgAA-Uo0FfcOdtyDQ&utm_campaign=yelp_api_v3&utm_medium=api_v3_business_search&utm_source=OY9bhzgAA-Uo0FfcOdtyDQ", "review_count": 1695, "categories": [{"alias": "bbq", "title": "Barbeque"}], "rating": 4.0, "coordinates": {"latitude": 40.727574, "longitude": -73.988623}, "transactions": ["delivery"], "price": "$$", "location": {"address1": "103 2nd Ave", "address2": "", "address3": "", "city": "New York", "zip_code": "10003", "country": "US", "state": "NY", "display_address": ["103 2nd Ave", "New York, NY 10003"]}, "phone": "+12126773733", "display_phone": "(212) 677-3733", "distance": 2506.620467612266}, {"id": "mlGfXoxc8cEss8Yms6VrXg", "alias": "fette-sau-brooklyn", "name": "Fette Sau", "image_url": "https://s3-media4.fl.yelpcdn.com/bphoto/rxzd7I7H1zVm0bWrDBCvKw/o.jpg", "is_closed": false, "url": "https://www.yelp.com/biz/fette-sau-brooklyn?adjust_creative=OY9bhzgAA-Uo0FfcOdtyDQ&utm_campaign=yelp_api_v3&utm_medium=api_v3_business_search&utm_source=OY9bhzgAA-Uo0FfcOdtyDQ", "review_count": 2186, "categories": [{"alias": "bbq", "title": "Barbeque"}, {"alias": "cocktailbars", "title": "Cocktail Bars"}], "rating": 4.0, "coordinates": {"latitude": 40.714066, "longitude": -73.956327}, "transactions": ["delivery", "pickup"], "price": "$$", "location": {"address1": "354 Metropolitan Ave", "address2": "", "address3": "", "city": "Brooklyn", "zip_code": "11211", "country": "US", "state": "NY", "display_address": ["354 Metropolitan Ave", "Brooklyn, NY 11211"]}, "phone": "+17189633404", "display_phone": "(718) 963-3404", "distance": 3340.604589727266}, {"id": "nsAU6F2vmdnphmfIa_RuWg", "alias": "mables-smokehouse-and-banquet-hall-brooklyn-6", "name": "Mable's Smokehouse & Banquet Hall", "image_url": "https://s3-media1.fl.yelpcdn.com/bphoto/OS2cqRCWCOioXnpLo-yeHg/o.jpg", "is_closed": false, "url": "https://www.yelp.com/biz/mables-smokehouse-and-banquet-hall-brooklyn-6?adjust_creative=OY9bhzgAA-Uo0FfcOdtyDQ&utm_campaign=yelp_api_v3&utm_medium=api_v3_business_search&utm_source=OY9bhzgAA-Uo0FfcOdtyDQ", "review_count": 763, "categories": [{"alias": "bbq", "title": "Barbeque"}, {"alias": "bars", "title": "Bars"}, {"alias": "tradamerican", "title": "American (Traditional)"}], "rating": 4.0, "coordinates": {"latitude": 40.7211890204726, "longitude": -73.9570004492998}, "transactions": ["delivery", "pickup", "restaurant_reservation"], "price": "$$", "location": {"address1": "44 Berry St", "address2": "", "address3": null, "city": "Brooklyn", "zip_code": "11249", "country": "US", "state": "NY", "display_address": ["44 Berry St", "Brooklyn, NY 11249"]}, "phone": "+17182186655", "display_phone": "(718) 218-6655", "distance": 3597.829928403173}, {"id": "nkfUKb7oWQt54Uz9VQLhUg", "alias": "butcher-bar-astoria-2", "name": "Butcher Bar", "image_url": "https://s3-media3.fl.yelpcdn.com/bphoto/YoSvEyWbrp9g4Yn4IILE9w/o.jpg", "is_closed": false, "url": "https://www.yelp.com/biz/butcher-bar-astoria-2?adjust_creative=OY9bhzgAA-Uo0FfcOdtyDQ&utm_campaign=yelp_api_v3&utm_medium=api_v3_business_search&utm_source=OY9bhzgAA-Uo0FfcOdtyDQ", "review_count": 1828, "categories": [{"alias": "bbq", "title": "Barbeque"}, {"alias": "burgers", "title": "Burgers"}], "rating": 4.0, "coordinates": {"latitude": 40.76431, "longitude": -73.9164}, "transactions": ["delivery", "pickup"], "price": "$$", "location": {"address1": "37-10 30th Ave", "address2": "", "address3": "", "city": "Astoria", "zip_code": "11103", "country": "US", "state": "NY", "display_address": ["37-10 30th Ave", "Astoria, NY 11103"]}, "phone": "+17186068140", "display_phone": "(718) 606-8140", "distance": 9272.342693737482}, {"id": "k8vE6g59i4JrAmXd6K1g5w", "alias": "friendship-foods-bbq-flushing", "name": "Friendship Foods BBQ", "image_url": "https://s3-media2.fl.yelpcdn.com/bphoto/1Kt-_zxkRa9eB8WGHgA51w/o.jpg", "is_closed": false, "url": "https://www.yelp.com/biz/friendship-foods-bbq-flushing?adjust_creative=OY9bhzgAA-Uo0FfcOdtyDQ&utm_campaign=yelp_api_v3&utm_medium=api_v3_business_search&utm_source=OY9bhzgAA-Uo0FfcOdtyDQ", "review_count": 130, "categories": [{"alias": "bbq", "title": "Barbeque"}, {"alias": "hotpot", "title": "Hot Pot"}], "rating": 3.5, "coordinates": {"latitude": 40.7634448260069, "longitude": -73.8280840963125}, "transactions": [], "price": "$$", "location": {"address1": "36-22 Union St", "address2": "", "address3": null, "city": "Flushing", "zip_code": "11354", "country": "US", "state": "NY", "display_address": ["36-22 Union St", "Flushing, NY 11354"]}, "phone": "+19175637856", "display_phone": "(917) 563-7856", "distance": 15417.948903405617}, {"id": "XzUW9MvEGOFs9_aNj11j2Q", "alias": "dinosaur-bar-b-que-harlem", "name": "Dinosaur Bar-B-Que", "image_url": "https://s3-media4.fl.yelpcdn.com/bphoto/dByEBk27JaG_SyfIC088Rg/o.jpg", "is_closed": false, "url": "https://www.yelp.com/biz/dinosaur-bar-b-que-harlem?adjust_creative=OY9bhzgAA-Uo0FfcOdtyDQ&utm_campaign=yelp_api_v3&utm_medium=api_v3_business_search&utm_source=OY9bhzgAA-Uo0FfcOdtyDQ", "review_count": 2827, "categories": [{"alias": "bbq", "title": "Barbeque"}, {"alias": "musicvenues", "title": "Music Venues"}], "rating": 4.0, "coordinates": {"latitude": 40.818098338924, "longitude": -73.9608729269837}, "transactions": ["delivery", "pickup"], "price": "$$", "location": {"address1": "700 W 125th St", "address2": "", "address3": "", "city": "Harlem", "zip_code": "10027", "country": "US", "state": "NY", "display_address": ["700 W 125th St", "Harlem, NY 10027"]}, "phone": "+12126941777", "display_phone": "(212) 694-1777", "distance": 12838.826047989593}, {"id": "Zzvqc7XcyGVX5bnjGN9IXA", "alias": "pig-beach-brooklyn", "name": "Pig Beach", "image_url": "https://s3-media4.fl.yelpcdn.com/bphoto/QSp-AiiWn6XBWqxbsIWRog/o.jpg", "is_closed": false, "url": "https://www.yelp.com/biz/pig-beach-brooklyn?adjust_creative=OY9bhzgAA-Uo0FfcOdtyDQ&utm_campaign=yelp_api_v3&utm_medium=api_v3_business_search&utm_source=OY9bhzgAA-Uo0FfcOdtyDQ", "review_count": 406, "categories": [{"alias": "bbq", "title": "Barbeque"}, {"alias": "bars", "title": "Bars"}], "rating": 4.0, "coordinates": {"latitude": 40.6792941479875, "longitude": -73.9880264255794}, "transactions": [], "price": "$$", "location": {"address1": "480 Union St", "address2": "", "address3": "", "city": "Brooklyn", "zip_code": "11231", "country": "US", "state": "NY", "display_address": ["480 Union St", "Brooklyn, NY 11231"]}, "phone": "", "display_phone": "", "distance": 2921.451300777394}, {"id": "FZpm4_fbd6P984foOUejWg", "alias": "jongro-bbq-new-york-3", "name": "Jongro BBQ", "image_url": "https://s3-media3.fl.yelpcdn.com/bphoto/zTVtLZtqwAFqYPXwuk1t5w/o.jpg", "is_closed": false, "url": "https://www.yelp.com/biz/jongro-bbq-new-york-3?adjust_creative=OY9bhzgAA-Uo0FfcOdtyDQ&utm_campaign=yelp_api_v3&utm_medium=api_v3_business_search&utm_source=OY9bhzgAA-Uo0FfcOdtyDQ", "review_count": 1554, "categories": [{"alias": "korean", "title": "Korean"}, {"alias": "bbq", "title": "Barbeque"}, {"alias": "beerbar", "title": "Beer Bar"}], "rating": 4.0, "coordinates": {"latitude": 40.747514, "longitude": -73.986884}, "transactions": [], "price": "$$", "location": {"address1": "22 W 32nd St", "address2": "Fl 2", "address3": "", "city": "New York", "zip_code": "10001", "country": "US", "state": "NY", "display_address": ["22 W 32nd St", "Fl 2", "New York, NY 10001"]}, "phone": "+12124732233", "display_phone": "(212) 473-2233", "distance": 4719.351335074731}, {"id": "zEIt0xaPM9DIS-pc118O6A", "alias": "hometown-hotpot-and-bbq-new-york-2", "name": "Hometown Hotpot & BBQ", "image_url": "https://s3-media2.fl.yelpcdn.com/bphoto/B7p-cZUcJasqgM36BVes-w/o.jpg", "is_closed": false, "url": "https://www.yelp.com/biz/hometown-hotpot-and-bbq-new-york-2?adjust_creative=OY9bhzgAA-Uo0FfcOdtyDQ&utm_campaign=yelp_api_v3&utm_medium=api_v3_business_search&utm_source=OY9bhzgAA-Uo0FfcOdtyDQ", "review_count": 1055, "categories": [{"alias": "hotpot", "title": "Hot Pot"}, {"alias": "bbq", "title": "Barbeque"}], "rating": 4.0, "coordinates": {"latitude": 40.71931, "longitude": -73.9968899}, "transactions": [], "price": "$$", "location": {"address1": "194 Grand St", "address2": "", "address3": "", "city": "New York", "zip_code": "10013", "country": "US", "state": "NY", "display_address": ["194 Grand St", "New York, NY 10013"]}, "phone": "+12122198833", "display_phone": "(212) 219-8833", "distance": 1566.9496463416533}, {"id": "_VWpp7qBwJTAEwc4U2QX8Q", "alias": "funny-bbq-new-york-2", "name": "Funny BBQ", "image_url": "https://s3-media1.fl.yelpcdn.com/bphoto/4A-0wxpehQg8943wXbyKQg/o.jpg", "is_closed": false, "url": "https://www.yelp.com/biz/funny-bbq-new-york-2?adjust_creative=OY9bhzgAA-Uo0FfcOdtyDQ&utm_campaign=yelp_api_v3&utm_medium=api_v3_business_search&utm_source=OY9bhzgAA-Uo0FfcOdtyDQ", "review_count": 172, "categories": [{"alias": "hotpot", "title": "Hot Pot"}, {"alias": "bbq", "title": "Barbeque"}, {"alias": "noodles", "title": "Noodles"}], "rating": 3.0, "coordinates": {"latitude": 40.71773, "longitude": -73.99554}, "transactions": [], "price": "$$", "location": {"address1": "98 Bowery", "address2": "", "address3": "", "city": "New York", "zip_code": "10013", "country": "US", "state": "NY", "display_address": ["98 Bowery", "New York, NY 10013"]}, "phone": "+12129650076", "display_phone": "(212) 965-0076", "distance": 1372.5806673880359}, {"id": "6_PMTcR0SztUR9QVzDEtEA", "alias": "randalls-barbecue-new-york-4", "name": "Randalls Barbecue", "image_url": "https://s3-media1.fl.yelpcdn.com/bphoto/JbyIijmWsTT6699LFZCTRQ/o.jpg", "is_closed": false, "url": "https://www.yelp.com/biz/randalls-barbecue-new-york-4?adjust_creative=OY9bhzgAA-Uo0FfcOdtyDQ&utm_campaign=yelp_api_v3&utm_medium=api_v3_business_search&utm_source=OY9bhzgAA-Uo0FfcOdtyDQ", "review_count": 58, "categories": [{"alias": "bbq", "title": "Barbeque"}], "rating": 4.0, "coordinates": {"latitude": 40.716406, "longitude": -73.989006}, "transactions": ["delivery", "pickup"], "location": {"address1": "359 Grand St", "address2": "", "address3": null, "city": "New York", "zip_code": "10002", "country": "US", "state": "NY", "display_address": ["359 Grand St", "New York, NY 10002"]}, "phone": "+16466929980", "display_phone": "(646) 692-9980", "distance": 1297.7373650829593}, {"id": "4DQ1S0s5ViRsw_wpcT65cw", "alias": "john-brown-smokehouse-long-island-city-3", "name": "John Brown Smokehouse", "image_url": "https://s3-media1.fl.yelpcdn.com/bphoto/tw3mEWskUvAdJXrZPZSvtQ/o.jpg", "is_closed": false, "url": "https://www.yelp.com/biz/john-brown-smokehouse-long-island-city-3?adjust_creative=OY9bhzgAA-Uo0FfcOdtyDQ&utm_campaign=yelp_api_v3&utm_medium=api_v3_business_search&utm_source=OY9bhzgAA-Uo0FfcOdtyDQ", "review_count": 798, "categories": [{"alias": "smokehouse", "title": "Smokehouse"}], "rating": 4.0, "coordinates": {"latitude": 40.7489, "longitude": -73.95009}, "transactions": ["delivery", "pickup"], "price": "$$", "location": {"address1": "10-43 44th Dr", "address2": "", "address3": "", "city": "Long Island City", "zip_code": "11101", "country": "US", "state": "NY", "display_address": ["10-43 44th Dr", "Long Island City, NY 11101"]}, "phone": "+13476171120", "display_phone": "(347) 617-1120", "distance": 6101.380347131688}, {"id": "0ef3Q3RvIqfFzZoOfA2amg", "alias": "dinosaur-bar-b-que-brooklyn", "name": "Dinosaur Bar-B-Que", "image_url": "https://s3-media1.fl.yelpcdn.com/bphoto/9KjEPevrCLDiV-ilPu680w/o.jpg", "is_closed": false, "url": "https://www.yelp.com/biz/dinosaur-bar-b-que-brooklyn?adjust_creative=OY9bhzgAA-Uo0FfcOdtyDQ&utm_campaign=yelp_api_v3&utm_medium=api_v3_business_search&utm_source=OY9bhzgAA-Uo0FfcOdtyDQ", "review_count": 1499, "categories": [{"alias": "bbq", "title": "Barbeque"}, {"alias": "tradamerican", "title": "American (Traditional)"}], "rating": 3.5, "coordinates": {"latitude": 40.6776201, "longitude": -73.9838929}, "transactions": ["delivery", "pickup"], "price": "$$", "location": {"address1": "604 Union St", "address2": "", "address3": "", "city": "Brooklyn", "zip_code": "11215", "country": "US", "state": "NY", "display_address": ["604 Union St", "Brooklyn, NY 11215"]}, "phone": "+13474297030", "display_phone": "(347) 429-7030", "distance": 3215.8258608587835}, {"id": "x9ADy3a--S_6Oqn_1KLipA", "alias": "kang-ho-dong-baekjeong-new-york", "name": "Kang Ho Dong Baekjeong", "image_url": "https://s3-media1.fl.yelpcdn.com/bphoto/EmyHyUYe0bQ3ctqFbbPU0A/o.jpg", "is_closed": false, "url": "https://www.yelp.com/biz/kang-ho-dong-baekjeong-new-york?adjust_creative=OY9bhzgAA-Uo0FfcOdtyDQ&utm_campaign=yelp_api_v3&utm_medium=api_v3_business_search&utm_source=OY9bhzgAA-Uo0FfcOdtyDQ", "review_count": 1119, "categories": [{"alias": "korean", "title": "Korean"}, {"alias": "bbq", "title": "Barbeque"}], "rating": 4.0, "coordinates": {"latitude": 40.747173576622, "longitude": -73.9852144232788}, "transactions": [], "price": "$$$", "location": {"address1": "1 E 32nd St", "address2": "", "address3": "", "city": "New York", "zip_code": "10016", "country": "US", "state": "NY", "display_address": ["1 E 32nd St", "New York, NY 10016"]}, "phone": "+12129669839", "display_phone": "(212) 966-9839", "distance": 4702.663263992757}, {"id": "AAPJkyU0Y7Aci0RZBdJONg", "alias": "shokunin-bbq-brooklyn-2", "name": "Shokunin BBQ", "image_url": "https://s3-media4.fl.yelpcdn.com/bphoto/6Cgl4CPvQym9abb99cuxAA/o.jpg", "is_closed": false, "url": "https://www.yelp.com/biz/shokunin-bbq-brooklyn-2?adjust_creative=OY9bhzgAA-Uo0FfcOdtyDQ&utm_campaign=yelp_api_v3&utm_medium=api_v3_business_search&utm_source=OY9bhzgAA-Uo0FfcOdtyDQ", "review_count": 60, "categories": [{"alias": "japanese", "title": "Japanese"}, {"alias": "sushi", "title": "Sushi Bars"}, {"alias": "bbq", "title": "Barbeque"}], "rating": 3.0, "coordinates": {"latitude": 40.6332876204455, "longitude": -74.0062164404754}, "transactions": [], "price": "$$$", "location": {"address1": "952 60th St", "address2": null, "address3": null, "city": "Brooklyn", "zip_code": "11219", "country": "US", "state": "NY", "display_address": ["952 60th St", "Brooklyn, NY 11219"]}, "phone": "+17188517888", "display_phone": "(718) 851-7888", "distance": 8086.281417047183}, {"id": "Xf6e3HaP0AgMBxY7dEDkOA", "alias": "99-favor-taste-new-york-12", "name": "99 Favor Taste", "image_url": "https://s3-media4.fl.yelpcdn.com/bphoto/9ASZK8StF_TT_kzbuQhScA/o.jpg", "is_closed": false, "url": "https://www.yelp.com/biz/99-favor-taste-new-york-12?adjust_creative=OY9bhzgAA-Uo0FfcOdtyDQ&utm_campaign=yelp_api_v3&utm_medium=api_v3_business_search&utm_source=OY9bhzgAA-Uo0FfcOdtyDQ", "review_count": 1615, "categories": [{"alias": "chinese", "title": "Chinese"}, {"alias": "hotpot", "title": "Hot Pot"}, {"alias": "bbq", "title": "Barbeque"}], "rating": 4.0, "coordinates": {"latitude": 40.7176199, "longitude": -73.99249}, "transactions": ["restaurant_reservation"], "price": "$$", "location": {"address1": "285 Grand St", "address2": "", "address3": "", "city": "New York", "zip_code": "10002", "country": "US", "state": "NY", "display_address": ["285 Grand St", "New York, NY 10002"]}, "phone": "+16466829162", "display_phone": "(646) 682-9162", "distance": 1348.6324758108813}, {"id": "NlsxuhV6CUONOyI7xk7-mw", "alias": "hill-country-barbecue-market-new-york", "name": "Hill Country Barbecue Market", "image_url": "https://s3-media3.fl.yelpcdn.com/bphoto/ux1VJDPgEtsiC2Vqextnrg/o.jpg", "is_closed": false, "url": "https://www.yelp.com/biz/hill-country-barbecue-market-new-york?adjust_creative=OY9bhzgAA-Uo0FfcOdtyDQ&utm_campaign=yelp_api_v3&utm_medium=api_v3_business_search&utm_source=OY9bhzgAA-Uo0FfcOdtyDQ", "review_count": 2088, "categories": [{"alias": "bbq", "title": "Barbeque"}, {"alias": "southern", "title": "Southern"}, {"alias": "bars", "title": "Bars"}], "rating": 3.5, "coordinates": {"latitude": 40.74428, "longitude": -73.99041}, "transactions": ["delivery", "pickup"], "price": "$$", "location": {"address1": "30 W 26th St", "address2": "", "address3": "", "city": "New York", "zip_code": "10010", "country": "US", "state": "NY", "display_address": ["30 W 26th St", "New York, NY 10010"]}, "phone": "+12122554544", "display_phone": "(212) 255-4544", "distance": 4316.382583373882}, {"id": "sfsjk1h50ooC2ioY7m48gw", "alias": "pig-heaven-new-york-3", "name": "Pig Heaven", "image_url": "https://s3-media3.fl.yelpcdn.com/bphoto/YS070r6h0Y3u9PBmJZRPCg/o.jpg", "is_closed": false, "url": "https://www.yelp.com/biz/pig-heaven-new-york-3?adjust_creative=OY9bhzgAA-Uo0FfcOdtyDQ&utm_campaign=yelp_api_v3&utm_medium=api_v3_business_search&utm_source=OY9bhzgAA-Uo0FfcOdtyDQ", "review_count": 258, "categories": [{"alias": "bbq", "title": "Barbeque"}, {"alias": "chinese", "title": "Chinese"}], "rating": 4.0, "coordinates": {"latitude": 40.77544, "longitude": -73.95686}, "transactions": ["pickup", "restaurant_reservation", "delivery"], "price": "$$", "location": {"address1": "1420 3rd Ave", "address2": "", "address3": "", "city": "New York", "zip_code": "10028", "country": "US", "state": "NY", "display_address": ["1420 3rd Ave", "New York, NY 10028"]}, "phone": "+12127444333", "display_phone": "(212) 744-4333", "distance": 8399.490329439157}, {"id": "PmevHhcrsfeAYuA7RBPh0g", "alias": "red-white-and-que-smokehouse-kearny", "name": "Red White & Que Smokehouse", "image_url": "https://s3-media1.fl.yelpcdn.com/bphoto/oosYbVD9vWSWBdTy5PkWBg/o.jpg", "is_closed": false, "url": "https://www.yelp.com/biz/red-white-and-que-smokehouse-kearny?adjust_creative=OY9bhzgAA-Uo0FfcOdtyDQ&utm_campaign=yelp_api_v3&utm_medium=api_v3_business_search&utm_source=OY9bhzgAA-Uo0FfcOdtyDQ", "review_count": 352, "categories": [{"alias": "bbq", "title": "Barbeque"}, {"alias": "smokehouse", "title": "Smokehouse"}], "rating": 4.5, "coordinates": {"latitude": 40.7618138, "longitude": -74.1447397}, "transactions": ["pickup"], "price": "$$", "location": {"address1": "266 Davis Ave", "address2": null, "address3": "", "city": "Kearny", "zip_code": "07032", "country": "US", "state": "NJ", "display_address": ["266 Davis Ave", "Kearny, NJ 07032"]}, "phone": "+12019982271", "display_phone": "(201) 998-2271", "distance": 14140.041174360758}], "total": 11500, "region": {"center": {"longitude": -73.99429321289062, "latitude": 40.70544486444615}}}