{"businesses": [{"id": "OLSSJIp8pu5UlugTF7tuHA", "alias": "ootoya-chelsea-new-york", "name": "Ootoya Chelsea", "image_url": "https://s3-media2.fl.yelpcdn.com/bphoto/W8ZWQDEq3e9FjiRZwRNRNg/o.jpg", "is_closed": false, "url": "https://www.yelp.com/biz/ootoya-chelsea-new-york?adjust_creative=OY9bhzgAA-Uo0FfcOdtyDQ&utm_campaign=yelp_api_v3&utm_medium=api_v3_business_search&utm_source=OY9bhzgAA-Uo0FfcOdtyDQ", "review_count": 1285, "categories": [{"alias": "japanese", "title": "Japanese"}, {"alias": "sushi", "title": "Sushi Bars"}], "rating": 4.0, "coordinates": {"latitude": 40.738767, "longitude": -73.992778}, "transactions": ["restaurant_reservation", "pickup"], "price": "$$", "location": {"address1": "8 W 18th St", "address2": "", "address3": "", "city": "New York", "zip_code": "10011", "country": "US", "state": "NY", "display_address": ["8 W 18th St", "New York, NY 10011"]}, "phone": "+12122550018", "display_phone": "(212) 255-0018", "distance": 3707.4479106406193}, {"id": "axqp3pGJXnTLgq2QrPyDyQ", "alias": "benemon-new-york", "name": "Benemon", "image_url": "https://s3-media2.fl.yelpcdn.com/bphoto/B-_lF8sP0pLsAiuvxZFjLQ/o.jpg", "is_closed": false, "url": "https://www.yelp.com/biz/benemon-new-york?adjust_creative=OY9bhzgAA-Uo0FfcOdtyDQ&utm_campaign=yelp_api_v3&utm_medium=api_v3_business_search&utm_source=OY9bhzgAA-Uo0FfcOdtyDQ", "review_count": 469, "categories": [{"alias": "japanese", "title": "Japanese"}, {"alias": "comfortfood", "title": "Comfort Food"}, {"alias": "tapasmallplates", "title": "Tapas/Small Plates"}], "rating": 4.5, "coordinates": {"latitude": 40.72551, "longitude": -73.98838}, "transactions": [], "price": "$$", "location": {"address1": "108 E 4th St", "address2": null, "address3": "", "city": "New York", "zip_code": "10003", "country": "US", "state": "NY", "display_address": ["108 E 4th St", "New York, NY 10003"]}, "phone": "+12126143006", "display_phone": "(212) 614-3006", "distance": 2289.2038585586733}, {"id": "FlZ1zdVEKWv7dwqm8Uw8-w", "alias": "raku-new-york-7", "name": "Raku", "image_url": "https://s3-media4.fl.yelpcdn.com/bphoto/GEbZnH1jR4n7D5WOJ3urPg/o.jpg", "is_closed": false, "url": "https://www.yelp.com/biz/raku-new-york-7?adjust_creative=OY9bhzgAA-Uo0FfcOdtyDQ&utm_campaign=yelp_api_v3&utm_medium=api_v3_business_search&utm_source=OY9bhzgAA-Uo0FfcOdtyDQ", "review_count": 848, "categories": [{"alias": "japanese", "title": "Japanese"}, {"alias": "noodles", "title": "Noodles"}], "rating": 4.5, "coordinates": {"latitude": 40.7264988089246, "longitude": -73.9866526052356}, "transactions": ["delivery", "pickup"], "price": "$$", "location": {"address1": "342 E 6th St", "address2": "", "address3": "", "city": "New York", "zip_code": "10003", "country": "US", "state": "NY", "display_address": ["342 E 6th St", "New York, NY 10003"]}, "phone": "+12122281324", "display_phone": "(212) 228-1324", "distance": 2428.0392489129867}, {"id": "klAhw3xLQi9GF1tf_HnS7w", "alias": "izakaya-mew-new-york-3", "name": "Izakaya MEW", "image_url": "https://s3-media4.fl.yelpcdn.com/bphoto/Iix5fXx6WGqv-G2gyENd4A/o.jpg", "is_closed": false, "url": "https://www.yelp.com/biz/izakaya-mew-new-york-3?adjust_creative=OY9bhzgAA-Uo0FfcOdtyDQ&utm_campaign=yelp_api_v3&utm_medium=api_v3_business_search&utm_source=OY9bhzgAA-Uo0FfcOdtyDQ", "review_count": 2021, "categories": [{"alias": "tapas", "title": "Tapas Bars"}, {"alias": "sushi", "title": "Sushi Bars"}, {"alias": "izakaya", "title": "Izakaya"}], "rating": 4.0, "coordinates": {"latitude": 40.7501853096499, "longitude": -73.9863203465939}, "transactions": ["delivery", "pickup"], "price": "$$", "location": {"address1": "53 W 35th St", "address2": "", "address3": "", "city": "New York", "zip_code": "10001", "country": "US", "state": "NY", "display_address": ["53 W 35th St", "New York, NY 10001"]}, "phone": "+16463689384", "display_phone": "(646) 368-9384", "distance": 5020.06416695017}, {"id": "7iY35991NhQ1AShJZCNZgA", "alias": "sakagura-new-york", "name": "Sakagura", "image_url": "https://s3-media4.fl.yelpcdn.com/bphoto/f-Z182ojMUKsP9qamFfXRQ/o.jpg", "is_closed": false, "url": "https://www.yelp.com/biz/sakagura-new-york?adjust_creative=OY9bhzgAA-Uo0FfcOdtyDQ&utm_campaign=yelp_api_v3&utm_medium=api_v3_business_search&utm_source=OY9bhzgAA-Uo0FfcOdtyDQ", "review_count": 1705, "categories": [{"alias": "japanese", "title": "Japanese"}], "rating": 4.0, "coordinates": {"latitude": 40.7516467024541, "longitude": -73.9729489318165}, "transactions": [], "price": "$$$", "location": {"address1": "211 E 43rd St", "address2": "", "address3": "", "city": "New York", "zip_code": "10017", "country": "US", "state": "NY", "display_address": ["211 E 43rd St", "New York, NY 10017"]}, "phone": "+12129537253", "display_phone": "(212) 953-7253", "distance": 5443.138436306642}, {"id": "BPZfuPvSxCfoppU4lPFm0Q", "alias": "domodomo-new-york", "name": "DOMODOMO", "image_url": "https://s3-media2.fl.yelpcdn.com/bphoto/6pJRtg2Mm7lpYWMu4dsflg/o.jpg", "is_closed": false, "url": "https://www.yelp.com/biz/domodomo-new-york?adjust_creative=OY9bhzgAA-Uo0FfcOdtyDQ&utm_campaign=yelp_api_v3&utm_medium=api_v3_business_search&utm_source=OY9bhzgAA-Uo0FfcOdtyDQ", "review_count": 824, "categories": [{"alias": "japanese", "title": "Japanese"}, {"alias": "sushi", "title": "Sushi Bars"}], "rating": 4.5, "coordinates": {"latitude": 40.72803, "longitude": -74.00167}, "transactions": ["restaurant_reservation"], "price": "$$$", "location": {"address1": "140 W Houston St", "address2": null, "address3": "", "city": "New York", "zip_code": "10012", "country": "US", "state": "NY", "display_address": ["140 W Houston St", "New York, NY 10012"]}, "phone": "+16467070301", "display_phone": "(646) 707-0301", "distance": 2590.661311591928}, {"id": "qm1J_dPA5IHij1oAnoZwHw", "alias": "nonono-new-york-6", "name": "nonono", "image_url": "https://s3-media4.fl.yelpcdn.com/bphoto/yhZYzx5cnn8SFFF8eZdRHw/o.jpg", "is_closed": false, "url": "https://www.yelp.com/biz/nonono-new-york-6?adjust_creative=OY9bhzgAA-Uo0FfcOdtyDQ&utm_campaign=yelp_api_v3&utm_medium=api_v3_business_search&utm_source=OY9bhzgAA-Uo0FfcOdtyDQ", "review_count": 279, "categories": [{"alias": "tapasmallplates", "title": "Tapas/Small Plates"}, {"alias": "izakaya", "title": "Izakaya"}, {"alias": "ramen", "title": "Ramen"}], "rating": 4.5, "coordinates": {"latitude": 40.74545, "longitude": -73.98499}, "transactions": ["pickup", "restaurant_reservation", "delivery"], "price": "$$", "location": {"address1": "118 Madison Ave", "address2": "", "address3": "", "city": "New York", "zip_code": "10016", "country": "US", "state": "NY", "display_address": ["118 Madison Ave", "New York, NY 10016"]}, "phone": "+16467073227", "display_phone": "(646) 707-3227", "distance": 4515.897681612123}, {"id": "skhPdP1hEmyZzaJMpP_wIQ", "alias": "ichiba-kitchen-brooklyn", "name": "ichiba kitchen", "image_url": "https://s3-media2.fl.yelpcdn.com/bphoto/9n5l796k2Nq_Bi0HugDgCg/o.jpg", "is_closed": false, "url": "https://www.yelp.com/biz/ichiba-kitchen-brooklyn?adjust_creative=OY9bhzgAA-Uo0FfcOdtyDQ&utm_campaign=yelp_api_v3&utm_medium=api_v3_business_search&utm_source=OY9bhzgAA-Uo0FfcOdtyDQ", "review_count": 5, "categories": [{"alias": "japanese", "title": "Japanese"}, {"alias": "korean", "title": "Korean"}], "rating": 5.0, "coordinates": {"latitude": 40.685240669693, "longitude": -73.9917255526448}, "transactions": ["delivery", "pickup"], "location": {"address1": "196 Smith St", "address2": "", "address3": null, "city": "Brooklyn", "zip_code": "11201", "country": "US", "state": "NY", "display_address": ["196 Smith St", "Brooklyn, NY 11201"]}, "phone": "+19292950148", "display_phone": "(929) 295-0148", "distance": 2257.006329791354}, {"id": "7OMGEtFWT6sdd9TVuoGqJQ", "alias": "okonomi-brooklyn", "name": "Okonomi", "image_url": "https://s3-media3.fl.yelpcdn.com/bphoto/lDdAgme3TXkVjN_s-H3N8A/o.jpg", "is_closed": false, "url": "https://www.yelp.com/biz/okonomi-brooklyn?adjust_creative=OY9bhzgAA-Uo0FfcOdtyDQ&utm_campaign=yelp_api_v3&utm_medium=api_v3_business_search&utm_source=OY9bhzgAA-Uo0FfcOdtyDQ", "review_count": 415, "categories": [{"alias": "japanese", "title": "Japanese"}, {"alias": "seafood", "title": "Seafood"}], "rating": 4.5, "coordinates": {"latitude": 40.712622, "longitude": -73.9487843}, "transactions": [], "price": "$$", "location": {"address1": "150 Ainslie St", "address2": "", "address3": "", "city": "Brooklyn", "zip_code": "11211", "country": "US", "state": "NY", "display_address": ["150 Ainslie St", "Brooklyn, NY 11211"]}, "phone": "", "display_phone": "", "distance": 3918.0469578683437}, {"id": "RYKGs45OjF-vlb2Ds2Jb_g", "alias": "izakaya-juraku-new-york-2", "name": "Izakaya Juraku", "image_url": "https://s3-media4.fl.yelpcdn.com/bphoto/Zj05kZMU-B8EsAyMio0sBw/o.jpg", "is_closed": false, "url": "https://www.yelp.com/biz/izakaya-juraku-new-york-2?adjust_creative=OY9bhzgAA-Uo0FfcOdtyDQ&utm_campaign=yelp_api_v3&utm_medium=api_v3_business_search&utm_source=OY9bhzgAA-Uo0FfcOdtyDQ", "review_count": 51, "categories": [{"alias": "beerbar", "title": "Beer Bar"}, {"alias": "izakaya", "title": "Izakaya"}], "rating": 4.5, "coordinates": {"latitude": 40.71967, "longitude": -73.98868}, "transactions": ["delivery", "restaurant_reservation", "pickup"], "price": "$$", "location": {"address1": "121 Ludlow St", "address2": "", "address3": null, "city": "New York", "zip_code": "10002", "country": "US", "state": "NY", "display_address": ["121 Ludlow St", "New York, NY 10002"]}, "phone": "+12124770100", "display_phone": "(212) 477-0100", "distance": 1653.6399495830171}, {"id": "ax4INkzwL__-d_kGJfcA-w", "alias": "kaikagetsu-nyc-new-york-2", "name": "Kaikagetsu NYC", "image_url": "https://s3-media4.fl.yelpcdn.com/bphoto/eT1klz61X3gWc_O8NOBjXA/o.jpg", "is_closed": false, "url": "https://www.yelp.com/biz/kaikagetsu-nyc-new-york-2?adjust_creative=OY9bhzgAA-Uo0FfcOdtyDQ&utm_campaign=yelp_api_v3&utm_medium=api_v3_business_search&utm_source=OY9bhzgAA-Uo0FfcOdtyDQ", "review_count": 30, "categories": [{"alias": "japanese", "title": "Japanese"}], "rating": 4.5, "coordinates": {"latitude": 40.72104, "longitude": -73.98848}, "transactions": [], "location": {"address1": "162 Orchard St", "address2": "", "address3": null, "city": "New York", "zip_code": "10002", "country": "US", "state": "NY", "display_address": ["162 Orchard St", "New York, NY 10002"]}, "phone": "+16465903900", "display_phone": "(646) 590-3900", "distance": 1800.894212980667}, {"id": "kwq1W0opBnOYKoUXWYyQ5g", "alias": "momokawa-new-york-2", "name": "Momokawa", "image_url": "https://s3-media1.fl.yelpcdn.com/bphoto/ti5UQp0v3M7HjWS8Ag_y4A/o.jpg", "is_closed": false, "url": "https://www.yelp.com/biz/momokawa-new-york-2?adjust_creative=OY9bhzgAA-Uo0FfcOdtyDQ&utm_campaign=yelp_api_v3&utm_medium=api_v3_business_search&utm_source=OY9bhzgAA-Uo0FfcOdtyDQ", "review_count": 106, "categories": [{"alias": "japanese", "title": "Japanese"}, {"alias": "sushi", "title": "Sushi Bars"}], "rating": 4.0, "coordinates": {"latitude": 40.77047, "longitude": -73.9537}, "transactions": ["restaurant_reservation", "pickup", "delivery"], "price": "$$$", "location": {"address1": "1466 1st Ave", "address2": "", "address3": null, "city": "New York", "zip_code": "10075", "country": "US", "state": "NY", "display_address": ["1466 1st Ave", "New York, NY 10075"]}, "phone": "+12122560403", "display_phone": "(212) 256-0403", "distance": 7998.858190736131}, {"id": "i8F0fnempD5fTb2CxbwKDw", "alias": "izakaya-new-york-2", "name": "Izakaya", "image_url": "https://s3-media2.fl.yelpcdn.com/bphoto/p-pwtuZN_n6JeB5gIhxbKg/o.jpg", "is_closed": false, "url": "https://www.yelp.com/biz/izakaya-new-york-2?adjust_creative=OY9bhzgAA-Uo0FfcOdtyDQ&utm_campaign=yelp_api_v3&utm_medium=api_v3_business_search&utm_source=OY9bhzgAA-Uo0FfcOdtyDQ", "review_count": 235, "categories": [{"alias": "izakaya", "title": "Izakaya"}, {"alias": "tapasmallplates", "title": "Tapas/Small Plates"}, {"alias": "ramen", "title": "Ramen"}], "rating": 4.0, "coordinates": {"latitude": 40.72667, "longitude": -73.98738}, "transactions": [], "price": "$$", "location": {"address1": "326 E 6th St", "address2": "", "address3": "", "city": "New York", "zip_code": "10003", "country": "US", "state": "NY", "display_address": ["326 E 6th St", "New York, NY 10003"]}, "phone": "+19176977162", "display_phone": "(917) 697-7162", "distance": 2435.198896504114}, {"id": "NiFmuqLM-apdMX_jBPVIgw", "alias": "rabbit-house-new-york", "name": "Rabbit House", "image_url": "https://s3-media2.fl.yelpcdn.com/bphoto/EuXzyRAH6gEsO3PTpIYCdQ/o.jpg", "is_closed": false, "url": "https://www.yelp.com/biz/rabbit-house-new-york?adjust_creative=OY9bhzgAA-Uo0FfcOdtyDQ&utm_campaign=yelp_api_v3&utm_medium=api_v3_business_search&utm_source=OY9bhzgAA-Uo0FfcOdtyDQ", "review_count": 192, "categories": [{"alias": "tapas", "title": "Tapas Bars"}, {"alias": "asianfusion", "title": "Asian Fusion"}, {"alias": "izakaya", "title": "Izakaya"}], "rating": 4.5, "coordinates": {"latitude": 40.71725, "longitude": -73.99329}, "transactions": ["pickup"], "price": "$$", "location": {"address1": "76 Forsyth St", "address2": null, "address3": "", "city": "New York", "zip_code": "10002", "country": "US", "state": "NY", "display_address": ["76 Forsyth St", "New York, NY 10002"]}, "phone": "+12123434200", "display_phone": "(212) 343-4200", "distance": 1313.1524846868344}, {"id": "lxQ-tzFmL1tmUqZUN-CSRQ", "alias": "bozu-brooklyn", "name": "Bozu", "image_url": "https://s3-media3.fl.yelpcdn.com/bphoto/iFHeu93U4wIwk0Zg6wHrqQ/o.jpg", "is_closed": false, "url": "https://www.yelp.com/biz/bozu-brooklyn?adjust_creative=OY9bhzgAA-Uo0FfcOdtyDQ&utm_campaign=yelp_api_v3&utm_medium=api_v3_business_search&utm_source=OY9bhzgAA-Uo0FfcOdtyDQ", "review_count": 792, "categories": [{"alias": "japanese", "title": "Japanese"}, {"alias": "sushi", "title": "Sushi Bars"}, {"alias": "asianfusion", "title": "Asian Fusion"}], "rating": 4.0, "coordinates": {"latitude": 40.7129, "longitude": -73.95749}, "transactions": [], "price": "$$", "location": {"address1": "296 Grand St", "address2": "", "address3": "", "city": "Brooklyn", "zip_code": "11211", "country": "US", "state": "NY", "display_address": ["296 Grand St", "Brooklyn, NY 11211"]}, "phone": "+17183847770", "display_phone": "(718) 384-7770", "distance": 3200.7565834137804}, {"id": "6qzNc9Z9DHYYleKqrW_K3g", "alias": "takashi-new-york", "name": "Takashi", "image_url": "https://s3-media4.fl.yelpcdn.com/bphoto/U7Zu6TK3x0ftIcpOwHTtNg/o.jpg", "is_closed": false, "url": "https://www.yelp.com/biz/takashi-new-york?adjust_creative=OY9bhzgAA-Uo0FfcOdtyDQ&utm_campaign=yelp_api_v3&utm_medium=api_v3_business_search&utm_source=OY9bhzgAA-Uo0FfcOdtyDQ", "review_count": 940, "categories": [{"alias": "japanese", "title": "Japanese"}, {"alias": "korean", "title": "Korean"}, {"alias": "bbq", "title": "Barbeque"}], "rating": 4.0, "coordinates": {"latitude": 40.7313524, "longitude": -74.0065048}, "transactions": ["restaurant_reservation"], "price": "$$$", "location": {"address1": "456 Hudson St", "address2": "", "address3": "", "city": "New York", "zip_code": "10014", "country": "US", "state": "NY", "display_address": ["456 Hudson St", "New York, NY 10014"]}, "phone": "+12124142929", "display_phone": "(212) 414-2929", "distance": 3067.50805251173}, {"id": "6lUsFj0KCao678o9L7QwUw", "alias": "hatsuhana-sushi-restaurant-new-york", "name": "Hatsuhana Sushi Restaurant", "image_url": "https://s3-media2.fl.yelpcdn.com/bphoto/yqxu_IyzeCxuKgN9M5ayFw/o.jpg", "is_closed": false, "url": "https://www.yelp.com/biz/hatsuhana-sushi-restaurant-new-york?adjust_creative=OY9bhzgAA-Uo0FfcOdtyDQ&utm_campaign=yelp_api_v3&utm_medium=api_v3_business_search&utm_source=OY9bhzgAA-Uo0FfcOdtyDQ", "review_count": 1188, "categories": [{"alias": "japanese", "title": "Japanese"}, {"alias": "sushi", "title": "Sushi Bars"}], "rating": 4.0, "coordinates": {"latitude": 40.75703, "longitude": -73.97692}, "transactions": ["delivery", "restaurant_reservation", "pickup"], "price": "$$$", "location": {"address1": "17 E 48th St", "address2": "", "address3": "", "city": "New York", "zip_code": "10017", "country": "US", "state": "NY", "display_address": ["17 E 48th St", "New York, NY 10017"]}, "phone": "+12123553345", "display_phone": "(212) 355-3345", "distance": 5920.049431134322}, {"id": "pNe8ZCkGTe4cXfKdOF7kYQ", "alias": "ise-restaurant-new-york-3", "name": "Ise Restaurant", "image_url": "https://s3-media2.fl.yelpcdn.com/bphoto/S5SGXwZfHG8Esw2x9-CF4A/o.jpg", "is_closed": false, "url": "https://www.yelp.com/biz/ise-restaurant-new-york-3?adjust_creative=OY9bhzgAA-Uo0FfcOdtyDQ&utm_campaign=yelp_api_v3&utm_medium=api_v3_business_search&utm_source=OY9bhzgAA-Uo0FfcOdtyDQ", "review_count": 358, "categories": [{"alias": "japanese", "title": "Japanese"}, {"alias": "sushi", "title": "Sushi Bars"}], "rating": 4.5, "coordinates": {"latitude": 40.7291024, "longitude": -73.9900618}, "transactions": ["restaurant_reservation", "pickup"], "price": "$$", "location": {"address1": "63 Cooper Sq", "address2": null, "address3": "", "city": "New York", "zip_code": "10003", "country": "US", "state": "NY", "display_address": ["63 Cooper Sq", "New York, NY 10003"]}, "phone": "+12122284152", "display_phone": "(212) 228-4152", "distance": 2654.657529899308}, {"id": "Uu1wc7CrweSIB4B7FLdbwg", "alias": "fukurou-new-york", "name": "Fukurou", "image_url": "https://s3-media2.fl.yelpcdn.com/bphoto/vKiEymvyKGpnWA0di7g93A/o.jpg", "is_closed": false, "url": "https://www.yelp.com/biz/fukurou-new-york?adjust_creative=OY9bhzgAA-Uo0FfcOdtyDQ&utm_campaign=yelp_api_v3&utm_medium=api_v3_business_search&utm_source=OY9bhzgAA-Uo0FfcOdtyDQ", "review_count": 295, "categories": [{"alias": "japanese", "title": "Japanese"}, {"alias": "sushi", "title": "Sushi Bars"}], "rating": 4.0, "coordinates": {"latitude": 40.72905, "longitude": -74.00143}, "transactions": [], "price": "$$", "location": {"address1": "87 MacDougal St", "address2": null, "address3": "", "city": "New York", "zip_code": "10012", "country": "US", "state": "NY", "display_address": ["87 MacDougal St", "New York, NY 10012"]}, "phone": "+12123880013", "display_phone": "(212) 388-0013", "distance": 2682.8384096049986}, {"id": "kN3rkbjvqkY62CDRYUVz4g", "alias": "yopparai-new-york", "name": "Yopparai", "image_url": "https://s3-media3.fl.yelpcdn.com/bphoto/_TJtPHpwDCmnzsSsjteY0Q/o.jpg", "is_closed": false, "url": "https://www.yelp.com/biz/yopparai-new-york?adjust_creative=OY9bhzgAA-Uo0FfcOdtyDQ&utm_campaign=yelp_api_v3&utm_medium=api_v3_business_search&utm_source=OY9bhzgAA-Uo0FfcOdtyDQ", "review_count": 206, "categories": [{"alias": "bars", "title": "Bars"}, {"alias": "izakaya", "title": "Izakaya"}], "rating": 4.5, "coordinates": {"latitude": 40.71919, "longitude": -73.98571}, "transactions": [], "price": "$$$", "location": {"address1": "151 Rivington St", "address2": "Fl 1", "address3": "", "city": "New York", "zip_code": "10002", "country": "US", "state": "NY", "display_address": ["151 Rivington St", "Fl 1", "New York, NY 10002"]}, "phone": "+12127777253", "display_phone": "(212) 777-7253", "distance": 1683.6295997443785}], "total": 2600, "region": {"center": {"longitude": -73.99429321289062, "latitude": 40.70544486444615}}}