{"businesses": [{"id": "xZ96vaoL-cQjfotmUKtjJQ", "alias": "barn-joo-35-new-york", "name": "Barn Joo 35", "image_url": "https://s3-media1.fl.yelpcdn.com/bphoto/1R5CgYlK5qGUhKZOvZThKw/o.jpg", "is_closed": false, "url": "https://www.yelp.com/biz/barn-joo-35-new-york?adjust_creative=OY9bhzgAA-Uo0FfcOdtyDQ&utm_campaign=yelp_api_v3&utm_medium=api_v3_business_search&utm_source=OY9bhzgAA-Uo0FfcOdtyDQ", "review_count": 1373, "categories": [{"alias": "korean", "title": "Korean"}, {"alias": "gastropubs", "title": "Gastropubs"}, {"alias": "tapasmallplates", "title": "Tapas/Small Plates"}], "rating": 4.5, "coordinates": {"latitude": 40.74964, "longitude": -73.98582}, "transactions": ["pickup", "delivery", "restaurant_reservation"], "price": "$$", "location": {"address1": "34 W 35th St", "address2": "", "address3": "", "city": "New York", "zip_code": "10001", "country": "US", "state": "NY", "display_address": ["34 W 35th St", "New York, NY 10001"]}, "phone": "+12125644430", "display_phone": "(212) 564-4430", "distance": 4968.473297353009}, {"id": "I6KHYESZdZQz0fnMaMyIpQ", "alias": "zusik-new-york-2", "name": "Zusik", "image_url": "https://s3-media3.fl.yelpcdn.com/bphoto/FSt1wAilXlUh9iKbs5xWBQ/o.jpg", "is_closed": false, "url": "https://www.yelp.com/biz/zusik-new-york-2?adjust_creative=OY9bhzgAA-Uo0FfcOdtyDQ&utm_campaign=yelp_api_v3&utm_medium=api_v3_business_search&utm_source=OY9bhzgAA-Uo0FfcOdtyDQ", "review_count": 6, "categories": [{"alias": "korean", "title": "Korean"}, {"alias": "beerbar", "title": "Beer Bar"}, {"alias": "wine_bars", "title": "Wine Bars"}], "rating": 5.0, "coordinates": {"latitude": 40.73864, "longitude": -74.00029}, "transactions": [], "location": {"address1": "202 W14th St", "address2": "", "address3": "", "city": "New York", "zip_code": "10011", "country": "US", "state": "NY", "display_address": ["202 W14th St", "New York, NY 10011"]}, "phone": "+16463705331", "display_phone": "(646) 370-5331", "distance": 3719.957729671145}, {"id": "cOXYWZ_GTX-_ue_kveguRg", "alias": "ssam-brooklyn", "name": "SSAM", "image_url": "https://s3-media3.fl.yelpcdn.com/bphoto/BwBhsK1xpDbQmHOWnfuf0w/o.jpg", "is_closed": false, "url": "https://www.yelp.com/biz/ssam-brooklyn?adjust_creative=OY9bhzgAA-Uo0FfcOdtyDQ&utm_campaign=yelp_api_v3&utm_medium=api_v3_business_search&utm_source=OY9bhzgAA-Uo0FfcOdtyDQ", "review_count": 357, "categories": [{"alias": "korean", "title": "Korean"}, {"alias": "chicken_wings", "title": "Chicken Wings"}, {"alias": "ramen", "title": "Ramen"}], "rating": 4.0, "coordinates": {"latitude": 40.68594, "longitude": -73.991274}, "transactions": ["pickup", "delivery"], "price": "$$", "location": {"address1": "170 Smith St", "address2": "", "address3": "", "city": "Brooklyn", "zip_code": "11201", "country": "US", "state": "NY", "display_address": ["170 Smith St", "Brooklyn, NY 11201"]}, "phone": "+19179091248", "display_phone": "(917) 909-1248", "distance": 2183.724938894009}, {"id": "QSWH-i8I4Rp1mWvXRIaFqQ", "alias": "grand-seoul-new-york-2", "name": "Grand Seoul", "image_url": "https://s3-media2.fl.yelpcdn.com/bphoto/CM73zSBAXmZij-jmYm22og/o.jpg", "is_closed": false, "url": "https://www.yelp.com/biz/grand-seoul-new-york-2?adjust_creative=OY9bhzgAA-Uo0FfcOdtyDQ&utm_campaign=yelp_api_v3&utm_medium=api_v3_business_search&utm_source=OY9bhzgAA-Uo0FfcOdtyDQ", "review_count": 88, "categories": [{"alias": "korean", "title": "Korean"}, {"alias": "bbq", "title": "Barbeque"}], "rating": 4.5, "coordinates": {"latitude": 40.7175, "longitude": -73.99435}, "transactions": ["restaurant_reservation"], "price": "$$$", "location": {"address1": "85 Chrystie St", "address2": "", "address3": null, "city": "New York", "zip_code": "10002", "country": "US", "state": "NY", "display_address": ["85 Chrystie St", "New York, NY 10002"]}, "phone": "+12122265555", "display_phone": "(212) 226-5555", "distance": 1341.0273531597566}, {"id": "fVbUVAiLiGgLA_nxBFxyww", "alias": "thursday-kitchen-new-york", "name": "Thursday Kitchen", "image_url": "https://s3-media2.fl.yelpcdn.com/bphoto/5P_HFhM6w8cRK3IiCzrNTQ/o.jpg", "is_closed": false, "url": "https://www.yelp.com/biz/thursday-kitchen-new-york?adjust_creative=OY9bhzgAA-Uo0FfcOdtyDQ&utm_campaign=yelp_api_v3&utm_medium=api_v3_business_search&utm_source=OY9bhzgAA-Uo0FfcOdtyDQ", "review_count": 1139, "categories": [{"alias": "korean", "title": "Korean"}, {"alias": "newamerican", "title": "American (New)"}, {"alias": "tapasmallplates", "title": "Tapas/Small Plates"}], "rating": 4.5, "coordinates": {"latitude": 40.7275, "longitude": -73.9838}, "transactions": [], "price": "$$", "location": {"address1": "424 E 9th St", "address2": null, "address3": "", "city": "New York", "zip_code": "10009", "country": "US", "state": "NY", "display_address": ["424 E 9th St", "New York, NY 10009"]}, "phone": "", "display_phone": "", "distance": 2613.42601480514}, {"id": "FsuJ7VC5vxX3wcLhFrb97Q", "alias": "oiji-new-york", "name": "Oiji", "image_url": "https://s3-media3.fl.yelpcdn.com/bphoto/iezlsyyudvnWjbnAkqPgtw/o.jpg", "is_closed": false, "url": "https://www.yelp.com/biz/oiji-new-york?adjust_creative=OY9bhzgAA-Uo0FfcOdtyDQ&utm_campaign=yelp_api_v3&utm_medium=api_v3_business_search&utm_source=OY9bhzgAA-Uo0FfcOdtyDQ", "review_count": 458, "categories": [{"alias": "korean", "title": "Korean"}], "rating": 4.5, "coordinates": {"latitude": 40.72727, "longitude": -73.98585}, "transactions": [], "price": "$$$", "location": {"address1": "119 1st Ave", "address2": "", "address3": "", "city": "New York", "zip_code": "10003", "country": "US", "state": "NY", "display_address": ["119 1st Ave", "New York, NY 10003"]}, "phone": "+16467679050", "display_phone": "(646) 767-9050", "distance": 2528.519369329009}, {"id": "igcUHNvsKc-s-RtvUmkg2w", "alias": "kook-new-york", "name": "K'OOK", "image_url": "https://s3-media3.fl.yelpcdn.com/bphoto/CFFjwXRiLmE4lgDiQ8lLbA/o.jpg", "is_closed": false, "url": "https://www.yelp.com/biz/kook-new-york?adjust_creative=OY9bhzgAA-Uo0FfcOdtyDQ&utm_campaign=yelp_api_v3&utm_medium=api_v3_business_search&utm_source=OY9bhzgAA-Uo0FfcOdtyDQ", "review_count": 390, "categories": [{"alias": "korean", "title": "Korean"}], "rating": 4.0, "coordinates": {"latitude": 40.7267, "longitude": -73.98746}, "transactions": ["pickup", "delivery"], "price": "$$", "location": {"address1": "324 E 6th St", "address2": null, "address3": "", "city": "New York", "zip_code": "10003", "country": "US", "state": "NY", "display_address": ["324 E 6th St", "New York, NY 10003"]}, "phone": "+12122540300", "display_phone": "(212) 254-0300", "distance": 2434.8910533423864}, {"id": "L7_siqDfU4-ZA17YtA-SBg", "alias": "silver-factory-brooklyn", "name": "Silver Factory", "image_url": "https://s3-media2.fl.yelpcdn.com/bphoto/jTUCcGJiZZPLlEmx0EHgXg/o.jpg", "is_closed": false, "url": "https://www.yelp.com/biz/silver-factory-brooklyn?adjust_creative=OY9bhzgAA-Uo0FfcOdtyDQ&utm_campaign=yelp_api_v3&utm_medium=api_v3_business_search&utm_source=OY9bhzgAA-Uo0FfcOdtyDQ", "review_count": 145, "categories": [{"alias": "korean", "title": "Korean"}, {"alias": "bars", "title": "Bars"}], "rating": 4.5, "coordinates": {"latitude": 40.709227, "longitude": -73.958598}, "transactions": ["delivery", "pickup", "restaurant_reservation"], "price": "$$", "location": {"address1": "270 South 5th St", "address2": null, "address3": "", "city": "Brooklyn", "zip_code": "11211", "country": "US", "state": "NY", "display_address": ["270 South 5th St", "Brooklyn, NY 11211"]}, "phone": "+13477253017", "display_phone": "(347) 725-3017", "distance": 3039.9237511522865}, {"id": "FZpm4_fbd6P984foOUejWg", "alias": "jongro-bbq-new-york-3", "name": "Jongro BBQ", "image_url": "https://s3-media3.fl.yelpcdn.com/bphoto/zTVtLZtqwAFqYPXwuk1t5w/o.jpg", "is_closed": false, "url": "https://www.yelp.com/biz/jongro-bbq-new-york-3?adjust_creative=OY9bhzgAA-Uo0FfcOdtyDQ&utm_campaign=yelp_api_v3&utm_medium=api_v3_business_search&utm_source=OY9bhzgAA-Uo0FfcOdtyDQ", "review_count": 1554, "categories": [{"alias": "korean", "title": "Korean"}, {"alias": "bbq", "title": "Barbeque"}, {"alias": "beerbar", "title": "Beer Bar"}], "rating": 4.0, "coordinates": {"latitude": 40.747514, "longitude": -73.986884}, "transactions": [], "price": "$$", "location": {"address1": "22 W 32nd St", "address2": "Fl 2", "address3": "", "city": "New York", "zip_code": "10001", "country": "US", "state": "NY", "display_address": ["22 W 32nd St", "Fl 2", "New York, NY 10001"]}, "phone": "+12124732233", "display_phone": "(212) 473-2233", "distance": 4719.351335074731}, {"id": "ogCC-lJJYnwXDvKGmKZ6Sw", "alias": "woorijip-authentic-korean-food-new-york", "name": "Woorijip Authentic Korean Food", "image_url": "https://s3-media4.fl.yelpcdn.com/bphoto/NZcGFutBjf1frDkslh6urw/o.jpg", "is_closed": false, "url": "https://www.yelp.com/biz/woorijip-authentic-korean-food-new-york?adjust_creative=OY9bhzgAA-Uo0FfcOdtyDQ&utm_campaign=yelp_api_v3&utm_medium=api_v3_business_search&utm_source=OY9bhzgAA-Uo0FfcOdtyDQ", "review_count": 2515, "categories": [{"alias": "korean", "title": "Korean"}], "rating": 4.0, "coordinates": {"latitude": 40.74747, "longitude": -73.98648}, "transactions": [], "price": "$", "location": {"address1": "12 W 32nd St", "address2": "", "address3": "", "city": "New York", "zip_code": "10001", "country": "US", "state": "NY", "display_address": ["12 W 32nd St", "New York, NY 10001"]}, "phone": "+12122441115", "display_phone": "(212) 244-1115", "distance": 4710.703598173038}, {"id": "0GN6l4FAknTFSWZhEan45A", "alias": "gunbae-new-york", "name": "GunBae", "image_url": "https://s3-media2.fl.yelpcdn.com/bphoto/KxkF-jXz-aUw2B9ghw6Ytg/o.jpg", "is_closed": false, "url": "https://www.yelp.com/biz/gunbae-new-york?adjust_creative=OY9bhzgAA-Uo0FfcOdtyDQ&utm_campaign=yelp_api_v3&utm_medium=api_v3_business_search&utm_source=OY9bhzgAA-Uo0FfcOdtyDQ", "review_count": 221, "categories": [{"alias": "korean", "title": "Korean"}, {"alias": "karaoke", "title": "Karaoke"}, {"alias": "bbq", "title": "Barbeque"}], "rating": 4.0, "coordinates": {"latitude": 40.714683, "longitude": -74.010223}, "transactions": ["pickup", "delivery", "restaurant_reservation"], "price": "$$", "location": {"address1": "67 Murray St", "address2": "", "address3": "", "city": "New York", "zip_code": "10007", "country": "US", "state": "NY", "display_address": ["67 Murray St", "New York, NY 10007"]}, "phone": "+12123212500", "display_phone": "(212) 321-2500", "distance": 1690.7499416334247}, {"id": "qY1o1MhoRyN84RRhUJtvpQ", "alias": "her-name-is-han-new-york-3", "name": "Her Name Is Han", "image_url": "https://s3-media4.fl.yelpcdn.com/bphoto/v-Q1v7y9q8FbDCzgwAa8Xw/o.jpg", "is_closed": false, "url": "https://www.yelp.com/biz/her-name-is-han-new-york-3?adjust_creative=OY9bhzgAA-Uo0FfcOdtyDQ&utm_campaign=yelp_api_v3&utm_medium=api_v3_business_search&utm_source=OY9bhzgAA-Uo0FfcOdtyDQ", "review_count": 1023, "categories": [{"alias": "korean", "title": "Korean"}, {"alias": "breakfast_brunch", "title": "Breakfast & Brunch"}, {"alias": "cocktailbars", "title": "Cocktail Bars"}], "rating": 4.0, "coordinates": {"latitude": 40.74626, "longitude": -73.98473}, "transactions": ["pickup", "delivery"], "price": "$$", "location": {"address1": "17 E 31st St", "address2": "", "address3": "", "city": "New York", "zip_code": "10016", "country": "US", "state": "NY", "display_address": ["17 E 31st St", "New York, NY 10016"]}, "phone": "+12127799990", "display_phone": "(212) 779-9990", "distance": 4602.855043807115}, {"id": "FizBsTIAJwNrImIG1mPDcg", "alias": "barn-joo-new-york-3", "name": "Barn Joo", "image_url": "https://s3-media2.fl.yelpcdn.com/bphoto/sQo30xQ5Blz5Z1ADmz9y5w/o.jpg", "is_closed": false, "url": "https://www.yelp.com/biz/barn-joo-new-york-3?adjust_creative=OY9bhzgAA-Uo0FfcOdtyDQ&utm_campaign=yelp_api_v3&utm_medium=api_v3_business_search&utm_source=OY9bhzgAA-Uo0FfcOdtyDQ", "review_count": 1428, "categories": [{"alias": "korean", "title": "Korean"}, {"alias": "bbq", "title": "Barbeque"}, {"alias": "cocktailbars", "title": "Cocktail Bars"}], "rating": 4.0, "coordinates": {"latitude": 40.73684, "longitude": -73.99069}, "transactions": ["pickup", "delivery"], "price": "$$", "location": {"address1": "35 Union Sq W", "address2": "", "address3": null, "city": "New York", "zip_code": "10003", "country": "US", "state": "NY", "display_address": ["35 Union Sq W", "New York, NY 10003"]}, "phone": "+16463989663", "display_phone": "(646) 398-9663", "distance": 3509.0010091108297}, {"id": "0U9uW93o9DUnAP7r-76LVg", "alias": "haenyeo-brooklyn", "name": "Haenyeo", "image_url": "https://s3-media4.fl.yelpcdn.com/bphoto/zG9Oy4AnIh4botSp4kBNhw/o.jpg", "is_closed": false, "url": "https://www.yelp.com/biz/haenyeo-brooklyn?adjust_creative=OY9bhzgAA-Uo0FfcOdtyDQ&utm_campaign=yelp_api_v3&utm_medium=api_v3_business_search&utm_source=OY9bhzgAA-Uo0FfcOdtyDQ", "review_count": 37, "categories": [{"alias": "korean", "title": "Korean"}], "rating": 4.0, "coordinates": {"latitude": 40.67519, "longitude": -73.98116}, "transactions": ["pickup", "delivery"], "location": {"address1": "239 5th Ave", "address2": "", "address3": null, "city": "Brooklyn", "zip_code": "11215", "country": "US", "state": "NY", "display_address": ["239 5th Ave", "Brooklyn, NY 11215"]}, "phone": "+17182132290", "display_phone": "(718) 213-2290", "distance": 3545.1111784332547}, {"id": "EKkHfSYTm266-ZBve3SdgA", "alias": "yoon-haeundae-galbi-new-york-2", "name": "Yoon Haeundae Galbi", "image_url": "https://s3-media4.fl.yelpcdn.com/bphoto/mfBQrs3yEK52cu2MgJtGvQ/o.jpg", "is_closed": false, "url": "https://www.yelp.com/biz/yoon-haeundae-galbi-new-york-2?adjust_creative=OY9bhzgAA-Uo0FfcOdtyDQ&utm_campaign=yelp_api_v3&utm_medium=api_v3_business_search&utm_source=OY9bhzgAA-Uo0FfcOdtyDQ", "review_count": 232, "categories": [{"alias": "korean", "title": "Korean"}, {"alias": "bbq", "title": "Barbeque"}, {"alias": "steak", "title": "Steakhouses"}], "rating": 4.5, "coordinates": {"latitude": 40.74997, "longitude": -73.98442}, "transactions": ["pickup", "delivery", "restaurant_reservation"], "price": "$$$", "location": {"address1": "8 W 36th St", "address2": "", "address3": null, "city": "New York", "zip_code": "10018", "country": "US", "state": "NY", "display_address": ["8 W 36th St", "New York, NY 10018"]}, "phone": "+12122445345", "display_phone": "(212) 244-5345", "distance": 5011.064120986266}, {"id": "pcb8yK9_28uWz5CyokjwSg", "alias": "bangia-new-york-2", "name": "Bangia", "image_url": "https://s3-media3.fl.yelpcdn.com/bphoto/mXv72GFEMqAJPmvxHxcq-g/o.jpg", "is_closed": false, "url": "https://www.yelp.com/biz/bangia-new-york-2?adjust_creative=OY9bhzgAA-Uo0FfcOdtyDQ&utm_campaign=yelp_api_v3&utm_medium=api_v3_business_search&utm_source=OY9bhzgAA-Uo0FfcOdtyDQ", "review_count": 310, "categories": [{"alias": "korean", "title": "Korean"}, {"alias": "gastropubs", "title": "Gastropubs"}, {"alias": "cocktailbars", "title": "Cocktail Bars"}], "rating": 4.0, "coordinates": {"latitude": 40.746854, "longitude": -73.9845201}, "transactions": ["restaurant_reservation"], "price": "$$", "location": {"address1": "11 E 32nd St", "address2": "", "address3": "", "city": "New York", "zip_code": "10016", "country": "US", "state": "NY", "display_address": ["11 E 32nd St", "New York, NY 10016"]}, "phone": "+12126796790", "display_phone": "(212) 679-6790", "distance": 4677.55132020009}, {"id": "vWoT1h8E2eWvIdJqpuxfdg", "alias": "tofu-tofu-new-york-5", "name": " Tofu Tofu", "image_url": "https://s3-media1.fl.yelpcdn.com/bphoto/ratkcn43qXueDQ5pvqXKwQ/o.jpg", "is_closed": false, "url": "https://www.yelp.com/biz/tofu-tofu-new-york-5?adjust_creative=OY9bhzgAA-Uo0FfcOdtyDQ&utm_campaign=yelp_api_v3&utm_medium=api_v3_business_search&utm_source=OY9bhzgAA-Uo0FfcOdtyDQ", "review_count": 266, "categories": [{"alias": "korean", "title": "Korean"}, {"alias": "juicebars", "title": "Juice Bars & Smoothies"}, {"alias": "bbq", "title": "Barbeque"}], "rating": 4.5, "coordinates": {"latitude": 40.7176299520983, "longitude": -73.9954301342368}, "transactions": [], "price": "$$", "location": {"address1": "96 Bowery", "address2": "", "address3": null, "city": "New York", "zip_code": "10013", "country": "US", "state": "NY", "display_address": ["96 Bowery", "New York, NY 10013"]}, "phone": "+12127962597", "display_phone": "(212) 796-2597", "distance": 1358.3028621217425}, {"id": "xtxcAUvrD4dWHJd0cwvW1A", "alias": "jeju-noodle-bar-new-york", "name": "JeJu Noodle Bar", "image_url": "https://s3-media2.fl.yelpcdn.com/bphoto/oDClRThPAPmke4j9GLxCUA/o.jpg", "is_closed": false, "url": "https://www.yelp.com/biz/jeju-noodle-bar-new-york?adjust_creative=OY9bhzgAA-Uo0FfcOdtyDQ&utm_campaign=yelp_api_v3&utm_medium=api_v3_business_search&utm_source=OY9bhzgAA-Uo0FfcOdtyDQ", "review_count": 347, "categories": [{"alias": "korean", "title": "Korean"}, {"alias": "noodles", "title": "Noodles"}], "rating": 4.5, "coordinates": {"latitude": 40.73304, "longitude": -74.00734}, "transactions": [], "price": "$$", "location": {"address1": "679 Greenwich St", "address2": "", "address3": null, "city": "New York", "zip_code": "10014", "country": "US", "state": "NY", "display_address": ["679 Greenwich St", "New York, NY 10014"]}, "phone": "+16466660947", "display_phone": "(646) 666-0947", "distance": 3256.137406146092}, {"id": "VvsZAnEwU4c8Xkyrzx05Nw", "alias": "anytime-new-york", "name": "Anytime", "image_url": "https://s3-media2.fl.yelpcdn.com/bphoto/8GuUNv88Epovj2pHI2F0-g/o.jpg", "is_closed": false, "url": "https://www.yelp.com/biz/anytime-new-york?adjust_creative=OY9bhzgAA-Uo0FfcOdtyDQ&utm_campaign=yelp_api_v3&utm_medium=api_v3_business_search&utm_source=OY9bhzgAA-Uo0FfcOdtyDQ", "review_count": 308, "categories": [{"alias": "korean", "title": "Korean"}, {"alias": "newamerican", "title": "American (New)"}, {"alias": "tapasmallplates", "title": "Tapas/Small Plates"}], "rating": 4.5, "coordinates": {"latitude": 40.74779, "longitude": -73.98674}, "transactions": ["restaurant_reservation"], "price": "$$", "location": {"address1": "23 W 32nd St", "address2": "Fl 3", "address3": "", "city": "New York", "zip_code": "10001", "country": "US", "state": "NY", "display_address": ["23 W 32nd St", "Fl 3", "New York, NY 10001"]}, "phone": "+16466697733", "display_phone": "(646) 669-7733", "distance": 4761.966725883583}, {"id": "2Bg8Jfl2FvH1unmvxNS0dQ", "alias": "sik-gaek-woodside-3", "name": "Sik Gaek", "image_url": "https://s3-media1.fl.yelpcdn.com/bphoto/VJHpFPc3s_rHtoomk6lXhA/o.jpg", "is_closed": false, "url": "https://www.yelp.com/biz/sik-gaek-woodside-3?adjust_creative=OY9bhzgAA-Uo0FfcOdtyDQ&utm_campaign=yelp_api_v3&utm_medium=api_v3_business_search&utm_source=OY9bhzgAA-Uo0FfcOdtyDQ", "review_count": 539, "categories": [{"alias": "korean", "title": "Korean"}], "rating": 4.0, "coordinates": {"latitude": 40.743485, "longitude": -73.9148356}, "transactions": ["pickup", "delivery"], "price": "$$", "location": {"address1": "49-11 Roosevelt Ave", "address2": "", "address3": "", "city": "Woodside", "zip_code": "11377", "country": "US", "state": "NY", "display_address": ["49-11 Roosevelt Ave", "Woodside, NY 11377"]}, "phone": "+17182054555", "display_phone": "(718) 205-4555", "distance": 7919.99634632335}], "total": 1800, "region": {"center": {"longitude": -73.99429321289062, "latitude": 40.70544486444615}}}