{"businesses": [{"id": "6Ct7OeTRn4caY9g0swFBsw", "alias": "la-contenta-new-york", "name": "La Contenta", "image_url": "https://s3-media2.fl.yelpcdn.com/bphoto/FwZAyPgdKdPGQ8aAGKh3-w/o.jpg", "is_closed": false, "url": "https://www.yelp.com/biz/la-contenta-new-york?adjust_creative=OY9bhzgAA-Uo0FfcOdtyDQ&utm_campaign=yelp_api_v3&utm_medium=api_v3_business_search&utm_source=OY9bhzgAA-Uo0FfcOdtyDQ", "review_count": 670, "categories": [{"alias": "mexican", "title": "Mexican"}, {"alias": "bars", "title": "Bars"}, {"alias": "breakfast_brunch", "title": "Breakfast & Brunch"}], "rating": 4.5, "coordinates": {"latitude": 40.71873, "longitude": -73.98691}, "transactions": ["pickup", "delivery"], "price": "$$", "location": {"address1": "102 Norfolk St", "address2": "", "address3": "", "city": "New York", "zip_code": "10002", "country": "US", "state": "NY", "display_address": ["102 Norfolk St", "New York, NY 10002"]}, "phone": "+12124324180", "display_phone": "(212) 432-4180", "distance": 1602.3725010220583}, {"id": "Wx6lMnEh7dCmX-9PQF1Ifw", "alias": "toloache-50-new-york", "name": "Toloache 50", "image_url": "https://s3-media4.fl.yelpcdn.com/bphoto/m5yGUnpSxMB0KaxgwwXMQA/o.jpg", "is_closed": false, "url": "https://www.yelp.com/biz/toloache-50-new-york?adjust_creative=OY9bhzgAA-Uo0FfcOdtyDQ&utm_campaign=yelp_api_v3&utm_medium=api_v3_business_search&utm_source=OY9bhzgAA-Uo0FfcOdtyDQ", "review_count": 1761, "categories": [{"alias": "mexican", "title": "Mexican"}], "rating": 4.0, "coordinates": {"latitude": 40.762325, "longitude": -73.9855741}, "transactions": ["pickup", "delivery", "restaurant_reservation"], "price": "$$", "location": {"address1": "251 West 50th St", "address2": "", "address3": "", "city": "New York", "zip_code": "10012", "country": "US", "state": "NY", "display_address": ["251 West 50th St", "New York, NY 10012"]}, "phone": "+12125811818", "display_phone": "(212) 581-1818", "distance": 6367.299188770475}, {"id": "RzKR9QcYP03EQ_8DxTxowg", "alias": "barrio-chino-new-york", "name": "Barrio Chino", "image_url": "https://s3-media3.fl.yelpcdn.com/bphoto/8PdXnElPeE7PVXLDuU6lKg/o.jpg", "is_closed": false, "url": "https://www.yelp.com/biz/barrio-chino-new-york?adjust_creative=OY9bhzgAA-Uo0FfcOdtyDQ&utm_campaign=yelp_api_v3&utm_medium=api_v3_business_search&utm_source=OY9bhzgAA-Uo0FfcOdtyDQ", "review_count": 1069, "categories": [{"alias": "mexican", "title": "Mexican"}, {"alias": "bars", "title": "Bars"}], "rating": 4.0, "coordinates": {"latitude": 40.718022, "longitude": -73.990026}, "transactions": [], "price": "$$", "location": {"address1": "253 Broome St", "address2": null, "address3": "", "city": "New York", "zip_code": "10002", "country": "US", "state": "NY", "display_address": ["253 Broome St", "New York, NY 10002"]}, "phone": "+12122286710", "display_phone": "(212) 228-6710", "distance": 1444.0205013853188}, {"id": "XipQLDbyTl5tsLlyzAWzug", "alias": "jajaja-new-york", "name": "Jajaja", "image_url": "https://s3-media2.fl.yelpcdn.com/bphoto/QaIhCEp1FpU3a2teWQh6mA/o.jpg", "is_closed": false, "url": "https://www.yelp.com/biz/jajaja-new-york?adjust_creative=OY9bhzgAA-Uo0FfcOdtyDQ&utm_campaign=yelp_api_v3&utm_medium=api_v3_business_search&utm_source=OY9bhzgAA-Uo0FfcOdtyDQ", "review_count": 636, "categories": [{"alias": "mexican", "title": "Mexican"}, {"alias": "vegan", "title": "Vegan"}, {"alias": "bars", "title": "Bars"}], "rating": 4.5, "coordinates": {"latitude": 40.7141530317142, "longitude": -73.9904247969389}, "transactions": ["restaurant_reservation"], "price": "$$", "location": {"address1": "162 E Broadway", "address2": "", "address3": null, "city": "New York", "zip_code": "10002", "country": "US", "state": "NY", "display_address": ["162 E Broadway", "New York, NY 10002"]}, "phone": "+16468835453", "display_phone": "(646) 883-5453", "distance": 1021.7274074140097}, {"id": "9aJ1MVTthZw3QjqoG7mPjg", "alias": "rosies-new-york-2", "name": "Rosie's", "image_url": "https://s3-media3.fl.yelpcdn.com/bphoto/7euZyoCspqVWuwgbwZ9fPg/o.jpg", "is_closed": false, "url": "https://www.yelp.com/biz/rosies-new-york-2?adjust_creative=OY9bhzgAA-Uo0FfcOdtyDQ&utm_campaign=yelp_api_v3&utm_medium=api_v3_business_search&utm_source=OY9bhzgAA-Uo0FfcOdtyDQ", "review_count": 608, "categories": [{"alias": "mexican", "title": "Mexican"}], "rating": 4.0, "coordinates": {"latitude": 40.72492, "longitude": -73.99079}, "transactions": [], "price": "$$", "location": {"address1": "29 E 2nd St", "address2": null, "address3": "", "city": "New York", "zip_code": "10003", "country": "US", "state": "NY", "display_address": ["29 E 2nd St", "New York, NY 10003"]}, "phone": "+12123350114", "display_phone": "(212) 335-0114", "distance": 2184.8979126551453}, {"id": "pG-IkylRFOb-HlaD8NwvvQ", "alias": "la-loteria-new-york", "name": "La Loteria", "image_url": "https://s3-media1.fl.yelpcdn.com/bphoto/EyExqWPVoPrct0D_shxCHQ/o.jpg", "is_closed": false, "url": "https://www.yelp.com/biz/la-loteria-new-york?adjust_creative=OY9bhzgAA-Uo0FfcOdtyDQ&utm_campaign=yelp_api_v3&utm_medium=api_v3_business_search&utm_source=OY9bhzgAA-Uo0FfcOdtyDQ", "review_count": 289, "categories": [{"alias": "mexican", "title": "Mexican"}], "rating": 4.0, "coordinates": {"latitude": 40.7307865530978, "longitude": -74.004135953373}, "transactions": ["pickup", "delivery"], "price": "$$", "location": {"address1": "29 7th Ave S", "address2": "", "address3": "", "city": "New York", "zip_code": "10014", "country": "US", "state": "NY", "display_address": ["29 7th Ave S", "New York, NY 10014"]}, "phone": "+12128589096", "display_phone": "(212) 858-9096", "distance": 2937.425187408665}, {"id": "xemN4tP9RlK5c-yUT-M71Q", "alias": "mamasita-bar-and-grill-new-york", "name": "Mamasita Bar & Grill", "image_url": "https://s3-media1.fl.yelpcdn.com/bphoto/39y5db2HAv_Q3f50csofNQ/o.jpg", "is_closed": false, "url": "https://www.yelp.com/biz/mamasita-bar-and-grill-new-york?adjust_creative=OY9bhzgAA-Uo0FfcOdtyDQ&utm_campaign=yelp_api_v3&utm_medium=api_v3_business_search&utm_source=OY9bhzgAA-Uo0FfcOdtyDQ", "review_count": 885, "categories": [{"alias": "mexican", "title": "Mexican"}, {"alias": "bars", "title": "Bars"}], "rating": 4.0, "coordinates": {"latitude": 40.76733, "longitude": -73.98945}, "transactions": ["pickup", "delivery", "restaurant_reservation"], "price": "$$", "location": {"address1": "818 10th Ave", "address2": "", "address3": "", "city": "New York", "zip_code": "10019", "country": "US", "state": "NY", "display_address": ["818 10th Ave", "New York, NY 10019"]}, "phone": "+12123159444", "display_phone": "(212) 315-9444", "distance": 6894.902178906387}, {"id": "nrwOQSXoRXfAYhkdjiUk8g", "alias": "toro-loco-new-york", "name": "Toro Loco", "image_url": "https://s3-media1.fl.yelpcdn.com/bphoto/WXWUVnk5u1XaZV-fzAYV8g/o.jpg", "is_closed": false, "url": "https://www.yelp.com/biz/toro-loco-new-york?adjust_creative=OY9bhzgAA-Uo0FfcOdtyDQ&utm_campaign=yelp_api_v3&utm_medium=api_v3_business_search&utm_source=OY9bhzgAA-Uo0FfcOdtyDQ", "review_count": 123, "categories": [{"alias": "cocktailbars", "title": "Cocktail Bars"}, {"alias": "mexican", "title": "Mexican"}, {"alias": "breakfast_brunch", "title": "Breakfast & Brunch"}], "rating": 4.0, "coordinates": {"latitude": 40.70421, "longitude": -74.01208}, "transactions": ["pickup", "delivery"], "price": "$$", "location": {"address1": "15 Stone St", "address2": null, "address3": "", "city": "New York", "zip_code": "10004", "country": "US", "state": "NY", "display_address": ["15 Stone St", "New York, NY 10004"]}, "phone": "+19172620444", "display_phone": "(917) 262-0444", "distance": 1509.416353803401}, {"id": "X2C0_I0seTtjW9uL8e8FBw", "alias": "don-chingon-brooklyn", "name": "Don Chingon", "image_url": "https://s3-media2.fl.yelpcdn.com/bphoto/GyEcUNcMKHyQPsAWhuSTQA/o.jpg", "is_closed": false, "url": "https://www.yelp.com/biz/don-chingon-brooklyn?adjust_creative=OY9bhzgAA-Uo0FfcOdtyDQ&utm_campaign=yelp_api_v3&utm_medium=api_v3_business_search&utm_source=OY9bhzgAA-Uo0FfcOdtyDQ", "review_count": 309, "categories": [{"alias": "mexican", "title": "Mexican"}, {"alias": "cocktailbars", "title": "Cocktail Bars"}, {"alias": "tex-mex", "title": "Tex-Mex"}], "rating": 4.5, "coordinates": {"latitude": 40.6810431221494, "longitude": -73.9752403260395}, "transactions": ["pickup", "delivery"], "price": "$$", "location": {"address1": "216 Flatbush Ave", "address2": "", "address3": "", "city": "Brooklyn", "zip_code": "11217", "country": "US", "state": "NY", "display_address": ["216 Flatbush Ave", "Brooklyn, NY 11217"]}, "phone": "+17185763521", "display_phone": "(718) 576-3521", "distance": 3153.1818928354046}, {"id": "BbMUXd69i0tlWS2aoppwaQ", "alias": "el-camion-new-york", "name": "El Camion", "image_url": "https://s3-media4.fl.yelpcdn.com/bphoto/8Kw-eNbFlz02Q-30O74tRw/o.jpg", "is_closed": false, "url": "https://www.yelp.com/biz/el-camion-new-york?adjust_creative=OY9bhzgAA-Uo0FfcOdtyDQ&utm_campaign=yelp_api_v3&utm_medium=api_v3_business_search&utm_source=OY9bhzgAA-Uo0FfcOdtyDQ", "review_count": 646, "categories": [{"alias": "mexican", "title": "Mexican"}], "rating": 4.0, "coordinates": {"latitude": 40.7291, "longitude": -73.98105}, "transactions": ["pickup", "delivery"], "price": "$$", "location": {"address1": "194 Ave A", "address2": "", "address3": "", "city": "New York", "zip_code": "10009", "country": "US", "state": "NY", "display_address": ["194 Ave A", "New York, NY 10009"]}, "phone": "+12125335436", "display_phone": "(212) 533-5436", "distance": 2855.498816926392}, {"id": "MhGjWgAFFyb6QMwUIkhpBQ", "alias": "metro-taco-queens", "name": "Metro Taco", "image_url": "https://s3-media4.fl.yelpcdn.com/bphoto/XrNUgCRC4D15z9p9nzZtYg/o.jpg", "is_closed": false, "url": "https://www.yelp.com/biz/metro-taco-queens?adjust_creative=OY9bhzgAA-Uo0FfcOdtyDQ&utm_campaign=yelp_api_v3&utm_medium=api_v3_business_search&utm_source=OY9bhzgAA-Uo0FfcOdtyDQ", "review_count": 15, "categories": [{"alias": "desserts", "title": "Desserts"}, {"alias": "salad", "title": "Salad"}, {"alias": "tacos", "title": "Tacos"}], "rating": 5.0, "coordinates": {"latitude": 40.71054, "longitude": -73.85006}, "transactions": [], "location": {"address1": "102-15 Metropolitan Ave", "address2": null, "address3": "", "city": "Queens", "zip_code": "11375", "country": "US", "state": "NY", "display_address": ["102-15 Metropolitan Ave", "Queens, NY 11375"]}, "phone": "+13474944947", "display_phone": "(347) 494-4947", "distance": 12162.44287896518}, {"id": "7bD22UAtH56ikWYslOSIQg", "alias": "calexico-new-york-5", "name": "Calexico", "image_url": "https://s3-media2.fl.yelpcdn.com/bphoto/1vz06ahQijodY4mxqlRG-w/o.jpg", "is_closed": false, "url": "https://www.yelp.com/biz/calexico-new-york-5?adjust_creative=OY9bhzgAA-Uo0FfcOdtyDQ&utm_campaign=yelp_api_v3&utm_medium=api_v3_business_search&utm_source=OY9bhzgAA-Uo0FfcOdtyDQ", "review_count": 557, "categories": [{"alias": "mexican", "title": "Mexican"}, {"alias": "breakfast_brunch", "title": "Breakfast & Brunch"}], "rating": 4.0, "coordinates": {"latitude": 40.77259, "longitude": -73.95588}, "transactions": ["pickup", "delivery"], "price": "$$", "location": {"address1": "1491 2nd Ave", "address2": "", "address3": "", "city": "New York", "zip_code": "10075", "country": "US", "state": "NY", "display_address": ["1491 2nd Ave", "New York, NY 10075"]}, "phone": "+13479675955", "display_phone": "(347) 967-5955", "distance": 8138.257554066013}, {"id": "f7g3GhoQs9nQVTJEL2p48Q", "alias": "gran-electrica-brooklyn-3", "name": "Gran Electrica", "image_url": "https://s3-media1.fl.yelpcdn.com/bphoto/ABvdSNs8cl_g9FzIlaAvOg/o.jpg", "is_closed": false, "url": "https://www.yelp.com/biz/gran-electrica-brooklyn-3?adjust_creative=OY9bhzgAA-Uo0FfcOdtyDQ&utm_campaign=yelp_api_v3&utm_medium=api_v3_business_search&utm_source=OY9bhzgAA-Uo0FfcOdtyDQ", "review_count": 440, "categories": [{"alias": "mexican", "title": "Mexican"}, {"alias": "breakfast_brunch", "title": "Breakfast & Brunch"}, {"alias": "cocktailbars", "title": "Cocktail Bars"}], "rating": 3.5, "coordinates": {"latitude": 40.7027, "longitude": -73.99314}, "transactions": [], "price": "$$", "location": {"address1": "5 Front St", "address2": "", "address3": "", "city": "Brooklyn", "zip_code": "11201", "country": "US", "state": "NY", "display_address": ["5 Front St", "Brooklyn, NY 11201"]}, "phone": "+17188522700", "display_phone": "(718) 852-2700", "distance": 321.6955097734123}, {"id": "_Kc_mFOk7zMPDcDhkdJE7A", "alias": "toloache-thompson-new-york-3", "name": "Toloache Thompson", "image_url": "https://s3-media3.fl.yelpcdn.com/bphoto/hGC4Wd7rnzs5Uv9XU9rrRw/o.jpg", "is_closed": false, "url": "https://www.yelp.com/biz/toloache-thompson-new-york-3?adjust_creative=OY9bhzgAA-Uo0FfcOdtyDQ&utm_campaign=yelp_api_v3&utm_medium=api_v3_business_search&utm_source=OY9bhzgAA-Uo0FfcOdtyDQ", "review_count": 415, "categories": [{"alias": "mexican", "title": "Mexican"}, {"alias": "bars", "title": "Bars"}], "rating": 4.0, "coordinates": {"latitude": 40.7286749, "longitude": -73.9996277}, "transactions": ["pickup", "delivery"], "price": "$$", "location": {"address1": "205 Thompson St", "address2": null, "address3": "", "city": "New York", "zip_code": "10012", "country": "US", "state": "NY", "display_address": ["205 Thompson St", "New York, NY 10012"]}, "phone": "+12124200600", "display_phone": "(212) 420-0600", "distance": 2628.428464546211}, {"id": "9_CEU7Wmvmwlyvqr-PJD6w", "alias": "ofrenda-new-york", "name": "Ofrenda", "image_url": "https://s3-media3.fl.yelpcdn.com/bphoto/xarYYMOHDJSdKDnx4voM9Q/o.jpg", "is_closed": false, "url": "https://www.yelp.com/biz/ofrenda-new-york?adjust_creative=OY9bhzgAA-Uo0FfcOdtyDQ&utm_campaign=yelp_api_v3&utm_medium=api_v3_business_search&utm_source=OY9bhzgAA-Uo0FfcOdtyDQ", "review_count": 913, "categories": [{"alias": "mexican", "title": "Mexican"}, {"alias": "breakfast_brunch", "title": "Breakfast & Brunch"}], "rating": 4.0, "coordinates": {"latitude": 40.73391, "longitude": -74.00242}, "transactions": ["pickup", "delivery"], "price": "$$", "location": {"address1": "113 7th Ave S", "address2": "", "address3": "", "city": "New York", "zip_code": "10014", "country": "US", "state": "NY", "display_address": ["113 7th Ave S", "New York, NY 10014"]}, "phone": "+12129242305", "display_phone": "(212) 924-2305", "distance": 3239.692567061365}, {"id": "CfOBb6NU2awo8xclJpKU3g", "alias": "chela-modern-mexican-brooklyn", "name": "Chela Modern Mexican", "image_url": "https://s3-media3.fl.yelpcdn.com/bphoto/wUeSY-AJIig3h0gKkuvCNA/o.jpg", "is_closed": false, "url": "https://www.yelp.com/biz/chela-modern-mexican-brooklyn?adjust_creative=OY9bhzgAA-Uo0FfcOdtyDQ&utm_campaign=yelp_api_v3&utm_medium=api_v3_business_search&utm_source=OY9bhzgAA-Uo0FfcOdtyDQ", "review_count": 257, "categories": [{"alias": "lounges", "title": "Lounges"}, {"alias": "mexican", "title": "Mexican"}, {"alias": "breakfast_brunch", "title": "Breakfast & Brunch"}], "rating": 4.5, "coordinates": {"latitude": 40.67032, "longitude": -73.98569}, "transactions": ["pickup", "delivery"], "price": "$$", "location": {"address1": "408 5th Ave", "address2": "", "address3": null, "city": "Brooklyn", "zip_code": "11215", "country": "US", "state": "NY", "display_address": ["408 5th Ave", "Brooklyn, NY 11215"]}, "phone": "+17187011891", "display_phone": "(718) 701-1891", "distance": 3974.180451925868}, {"id": "mmAlHhnTDXIohPC3wfl0hQ", "alias": "mesa-coyoacan-brooklyn", "name": "Mesa Coyoacan", "image_url": "https://s3-media4.fl.yelpcdn.com/bphoto/bDRbU_Tpl5nZYkZx-zYASw/o.jpg", "is_closed": false, "url": "https://www.yelp.com/biz/mesa-coyoacan-brooklyn?adjust_creative=OY9bhzgAA-Uo0FfcOdtyDQ&utm_campaign=yelp_api_v3&utm_medium=api_v3_business_search&utm_source=OY9bhzgAA-Uo0FfcOdtyDQ", "review_count": 726, "categories": [{"alias": "mexican", "title": "Mexican"}, {"alias": "bars", "title": "Bars"}], "rating": 4.0, "coordinates": {"latitude": 40.715528, "longitude": -73.944273}, "transactions": ["pickup", "delivery"], "price": "$$", "location": {"address1": "372 Graham Ave", "address2": "", "address3": "", "city": "Brooklyn", "zip_code": "11211", "country": "US", "state": "NY", "display_address": ["372 Graham Ave", "Brooklyn, NY 11211"]}, "phone": "+17187828171", "display_phone": "(718) 782-8171", "distance": 4359.095637089325}, {"id": "DTKKEogIt2wQm4UULYVGug", "alias": "mad-dog-and-beans-mexican-cantina-new-york-2", "name": "Mad Dog & Beans Mexican Cantina", "image_url": "https://s3-media3.fl.yelpcdn.com/bphoto/tdMt8_hMLtcC1yCtYemMPQ/o.jpg", "is_closed": false, "url": "https://www.yelp.com/biz/mad-dog-and-beans-mexican-cantina-new-york-2?adjust_creative=OY9bhzgAA-Uo0FfcOdtyDQ&utm_campaign=yelp_api_v3&utm_medium=api_v3_business_search&utm_source=OY9bhzgAA-Uo0FfcOdtyDQ", "review_count": 816, "categories": [{"alias": "mexican", "title": "Mexican"}, {"alias": "bars", "title": "Bars"}], "rating": 3.5, "coordinates": {"latitude": 40.704168, "longitude": -74.010261}, "transactions": ["pickup", "delivery", "restaurant_reservation"], "price": "$$", "location": {"address1": "83 Pearl St", "address2": "", "address3": "", "city": "New York", "zip_code": "10004", "country": "US", "state": "NY", "display_address": ["83 Pearl St", "New York, NY 10004"]}, "phone": "+12122691177", "display_phone": "(212) 269-1177", "distance": 1353.464481258966}, {"id": "ihzI-4yGesoQuAoIocao8g", "alias": "tacuba-hells-kitchen-new-york", "name": "Tacuba Hell's Kitchen", "image_url": "https://s3-media1.fl.yelpcdn.com/bphoto/Dw6D5LwwLqZLHp66mPeXcg/o.jpg", "is_closed": false, "url": "https://www.yelp.com/biz/tacuba-hells-kitchen-new-york?adjust_creative=OY9bhzgAA-Uo0FfcOdtyDQ&utm_campaign=yelp_api_v3&utm_medium=api_v3_business_search&utm_source=OY9bhzgAA-Uo0FfcOdtyDQ", "review_count": 560, "categories": [{"alias": "mexican", "title": "Mexican"}, {"alias": "latin", "title": "Latin American"}, {"alias": "tapas", "title": "Tapas Bars"}], "rating": 4.0, "coordinates": {"latitude": 40.76545, "longitude": -73.98729}, "transactions": ["pickup", "delivery", "restaurant_reservation"], "price": "$$", "location": {"address1": "802 9th Ave", "address2": "", "address3": "", "city": "New York", "zip_code": "10019", "country": "US", "state": "NY", "display_address": ["802 9th Ave", "New York, NY 10019"]}, "phone": "+12122454500", "display_phone": "(212) 245-4500", "distance": 6697.602269438462}, {"id": "_B0NHhM3GmirV68XE5csSA", "alias": "ojala-comida-mexicana-brooklyn", "name": "Ojala Comida Mexicana", "image_url": "https://s3-media2.fl.yelpcdn.com/bphoto/gYN7WLQYA6k243w-qe8Y1Q/o.jpg", "is_closed": false, "url": "https://www.yelp.com/biz/ojala-comida-mexicana-brooklyn?adjust_creative=OY9bhzgAA-Uo0FfcOdtyDQ&utm_campaign=yelp_api_v3&utm_medium=api_v3_business_search&utm_source=OY9bhzgAA-Uo0FfcOdtyDQ", "review_count": 39, "categories": [{"alias": "mexican", "title": "Mexican"}], "rating": 4.0, "coordinates": {"latitude": 40.69323, "longitude": -73.9693}, "transactions": ["pickup", "delivery"], "location": {"address1": "413 Myrtle Ave", "address2": null, "address3": "", "city": "Brooklyn", "zip_code": "11205", "country": "US", "state": "NY", "display_address": ["413 Myrtle Ave", "Brooklyn, NY 11205"]}, "phone": "+13472278981", "display_phone": "(347) 227-8981", "distance": 2503.615122822003}], "total": 5000, "region": {"center": {"longitude": -73.99429321289062, "latitude": 40.70544486444615}}}