{"businesses": [{"id": "cUyfnb3E7HvzNfbTgTjl_Q", "alias": "despa\u00f1a-new-york-2", "name": "Despa\u00f1a", "image_url": "https://s3-media1.fl.yelpcdn.com/bphoto/vvSCh8Zs1eQLTkNeRL4lLQ/o.jpg", "is_closed": false, "url": "https://www.yelp.com/biz/despa%C3%B1a-new-york-2?adjust_creative=OY9bhzgAA-Uo0FfcOdtyDQ&utm_campaign=yelp_api_v3&utm_medium=api_v3_business_search&utm_source=OY9bhzgAA-Uo0FfcOdtyDQ", "review_count": 544, "categories": [{"alias": "gourmet", "title": "Specialty Food"}, {"alias": "spanish", "title": "Spanish"}, {"alias": "importedfood", "title": "Imported Food"}], "rating": 4.5, "coordinates": {"latitude": 40.7210686, "longitude": -73.9979083}, "transactions": ["delivery", "pickup"], "price": "$$", "location": {"address1": "408 Broome St", "address2": null, "address3": "", "city": "New York", "zip_code": "10013", "country": "US", "state": "NY", "display_address": ["408 Broome St", "New York, NY 10013"]}, "phone": "+12122195050", "display_phone": "(212) 219-5050", "distance": 1763.7952222218955}, {"id": "XEugUtbw4rRmGr9S1XA-aQ", "alias": "alta-new-york", "name": "Alta", "image_url": "https://s3-media1.fl.yelpcdn.com/bphoto/aUWGUNBLw-mbQZOzJ9-Pdw/o.jpg", "is_closed": false, "url": "https://www.yelp.com/biz/alta-new-york?adjust_creative=OY9bhzgAA-Uo0FfcOdtyDQ&utm_campaign=yelp_api_v3&utm_medium=api_v3_business_search&utm_source=OY9bhzgAA-Uo0FfcOdtyDQ", "review_count": 1792, "categories": [{"alias": "tapas", "title": "Tapas Bars"}, {"alias": "mediterranean", "title": "Mediterranean"}, {"alias": "spanish", "title": "Spanish"}], "rating": 4.0, "coordinates": {"latitude": 40.7345163811398, "longitude": -73.9983369619683}, "transactions": ["restaurant_reservation"], "price": "$$$", "location": {"address1": "64 W 10th St", "address2": "", "address3": "", "city": "New York", "zip_code": "10011", "country": "US", "state": "NY", "display_address": ["64 W 10th St", "New York, NY 10011"]}, "phone": "+12125057777", "display_phone": "(212) 505-7777", "distance": 3250.5152771255803}, {"id": "WFOaud0jlpXQ9aEecipUqg", "alias": "las-ramblas-new-york", "name": "Las Ramblas", "image_url": "https://s3-media3.fl.yelpcdn.com/bphoto/zmQ7NTPt4BjOiD2_gvMFeA/o.jpg", "is_closed": false, "url": "https://www.yelp.com/biz/las-ramblas-new-york?adjust_creative=OY9bhzgAA-Uo0FfcOdtyDQ&utm_campaign=yelp_api_v3&utm_medium=api_v3_business_search&utm_source=OY9bhzgAA-Uo0FfcOdtyDQ", "review_count": 687, "categories": [{"alias": "tapasmallplates", "title": "Tapas/Small Plates"}], "rating": 4.0, "coordinates": {"latitude": 40.731958, "longitude": -74.0015486}, "transactions": ["restaurant_reservation"], "price": "$$", "location": {"address1": "170 W 4th St", "address2": "", "address3": "", "city": "New York", "zip_code": "10014", "country": "US", "state": "NY", "display_address": ["170 W 4th St", "New York, NY 10014"]}, "phone": "+16464157924", "display_phone": "(646) 415-7924", "distance": 3018.8444501058625}, {"id": "DiHm4iIAQhqMKfjsrBPvZw", "alias": "socarrat-paella-bar-chelsea-new-york-3", "name": "Socarrat Paella Bar - Chelsea", "image_url": "https://s3-media2.fl.yelpcdn.com/bphoto/306Awg0qvHesU5AWMQrhaQ/o.jpg", "is_closed": false, "url": "https://www.yelp.com/biz/socarrat-paella-bar-chelsea-new-york-3?adjust_creative=OY9bhzgAA-Uo0FfcOdtyDQ&utm_campaign=yelp_api_v3&utm_medium=api_v3_business_search&utm_source=OY9bhzgAA-Uo0FfcOdtyDQ", "review_count": 1092, "categories": [{"alias": "spanish", "title": "Spanish"}, {"alias": "tapas", "title": "Tapas Bars"}, {"alias": "tapasmallplates", "title": "Tapas/Small Plates"}], "rating": 4.0, "coordinates": {"latitude": 40.7427204, "longitude": -73.9995147}, "transactions": ["delivery", "pickup"], "price": "$$$", "location": {"address1": "259 W 19th St", "address2": "", "address3": "", "city": "New York", "zip_code": "10011", "country": "US", "state": "NY", "display_address": ["259 W 19th St", "New York, NY 10011"]}, "phone": "+12124621000", "display_phone": "(212) 462-1000", "distance": 4168.136337343471}, {"id": "AIKjw2QLvVNdha3TciJYzg", "alias": "boqueria-spanish-tapas-soho-new-york", "name": "Boqueria Spanish Tapas - Soho", "image_url": "https://s3-media4.fl.yelpcdn.com/bphoto/3U31T6gjEK8x8sR05spgWg/o.jpg", "is_closed": false, "url": "https://www.yelp.com/biz/boqueria-spanish-tapas-soho-new-york?adjust_creative=OY9bhzgAA-Uo0FfcOdtyDQ&utm_campaign=yelp_api_v3&utm_medium=api_v3_business_search&utm_source=OY9bhzgAA-Uo0FfcOdtyDQ", "review_count": 908, "categories": [{"alias": "spanish", "title": "Spanish"}], "rating": 4.0, "coordinates": {"latitude": 40.724912, "longitude": -74.0021299}, "transactions": ["delivery", "pickup"], "price": "$$$", "location": {"address1": "171 Spring St", "address2": "", "address3": "", "city": "New York", "zip_code": "10012", "country": "US", "state": "NY", "display_address": ["171 Spring St", "New York, NY 10012"]}, "phone": "+12123434255", "display_phone": "(212) 343-4255", "distance": 2263.1676600663327}, {"id": "EHINHIbLklEUShuANKjGgw", "alias": "tomi\u00f1o-taberna-gallega-new-york", "name": "Tomi\u00f1o Taberna Gallega", "image_url": "https://s3-media2.fl.yelpcdn.com/bphoto/vDnblR-nCQpmJaFVX5d6HQ/o.jpg", "is_closed": false, "url": "https://www.yelp.com/biz/tomi%C3%B1o-taberna-gallega-new-york?adjust_creative=OY9bhzgAA-Uo0FfcOdtyDQ&utm_campaign=yelp_api_v3&utm_medium=api_v3_business_search&utm_source=OY9bhzgAA-Uo0FfcOdtyDQ", "review_count": 185, "categories": [{"alias": "wine_bars", "title": "Wine Bars"}, {"alias": "spanish", "title": "Spanish"}, {"alias": "tapas", "title": "Tapas Bars"}], "rating": 4.5, "coordinates": {"latitude": 40.7192978908919, "longitude": -73.9969160361937}, "transactions": [], "price": "$$$", "location": {"address1": "192 Grand St", "address2": "", "address3": null, "city": "New York", "zip_code": "10013", "country": "US", "state": "NY", "display_address": ["192 Grand St", "New York, NY 10013"]}, "phone": "+12129334763", "display_phone": "(212) 933-4763", "distance": 1556.166469060262}, {"id": "rrL05CECQO4sQXCc5BF90g", "alias": "mercado-little-spain-new-york", "name": "Mercado Little Spain", "image_url": "https://s3-media3.fl.yelpcdn.com/bphoto/vzCTPlIDwSMf9ajLPTXpSA/o.jpg", "is_closed": false, "url": "https://www.yelp.com/biz/mercado-little-spain-new-york?adjust_creative=OY9bhzgAA-Uo0FfcOdtyDQ&utm_campaign=yelp_api_v3&utm_medium=api_v3_business_search&utm_source=OY9bhzgAA-Uo0FfcOdtyDQ", "review_count": 42, "categories": [{"alias": "spanish", "title": "Spanish"}], "rating": 3.5, "coordinates": {"latitude": 40.753315, "longitude": -74.001619}, "transactions": [], "price": "$$", "location": {"address1": "10 Hudson Yards", "address2": null, "address3": null, "city": "New York", "zip_code": "10001", "country": "US", "state": "NY", "display_address": ["10 Hudson Yards", "New York, NY 10001"]}, "phone": "+16464951242", "display_phone": "(646) 495-1242", "distance": 5358.584527989489}, {"id": "fVslDZ8dGsVmcRhS0R0kFg", "alias": "huertas-new-york", "name": "Huertas", "image_url": "https://s3-media4.fl.yelpcdn.com/bphoto/FswXU5GmXCrXx7dAFYC0Kg/o.jpg", "is_closed": false, "url": "https://www.yelp.com/biz/huertas-new-york?adjust_creative=OY9bhzgAA-Uo0FfcOdtyDQ&utm_campaign=yelp_api_v3&utm_medium=api_v3_business_search&utm_source=OY9bhzgAA-Uo0FfcOdtyDQ", "review_count": 290, "categories": [{"alias": "spanish", "title": "Spanish"}, {"alias": "basque", "title": "Basque"}], "rating": 4.0, "coordinates": {"latitude": 40.726856, "longitude": -73.986251}, "transactions": [], "price": "$$", "location": {"address1": "107 1st Ave", "address2": null, "address3": "", "city": "New York", "zip_code": "10003", "country": "US", "state": "NY", "display_address": ["107 1st Ave", "New York, NY 10003"]}, "phone": "+12122284490", "display_phone": "(212) 228-4490", "distance": 2475.0281411802994}, {"id": "H9GD7km7riFooM0FkdwOPg", "alias": "calle-ocho-new-york", "name": "Calle Ocho", "image_url": "https://s3-media2.fl.yelpcdn.com/bphoto/_GMEdZAu02AJZHvrZv2dIA/o.jpg", "is_closed": false, "url": "https://www.yelp.com/biz/calle-ocho-new-york?adjust_creative=OY9bhzgAA-Uo0FfcOdtyDQ&utm_campaign=yelp_api_v3&utm_medium=api_v3_business_search&utm_source=OY9bhzgAA-Uo0FfcOdtyDQ", "review_count": 2458, "categories": [{"alias": "cuban", "title": "Cuban"}, {"alias": "latin", "title": "Latin American"}], "rating": 4.0, "coordinates": {"latitude": 40.7831208393736, "longitude": -73.9737190394484}, "transactions": ["delivery", "pickup"], "price": "$$", "location": {"address1": "45 W 81st St", "address2": "", "address3": "", "city": "New York", "zip_code": "10024", "country": "US", "state": "NY", "display_address": ["45 W 81st St", "New York, NY 10024"]}, "phone": "+12128735025", "display_phone": "(212) 873-5025", "distance": 8809.35918735764}, {"id": "5S8ZK9XLdl4l645twbNYZQ", "alias": "boqueria-spanish-tapas-upper-east-side-new-york", "name": "Boqueria Spanish Tapas - Upper East Side", "image_url": "https://s3-media2.fl.yelpcdn.com/bphoto/4jYT-BRK1E7lODxL5aZQaQ/o.jpg", "is_closed": false, "url": "https://www.yelp.com/biz/boqueria-spanish-tapas-upper-east-side-new-york?adjust_creative=OY9bhzgAA-Uo0FfcOdtyDQ&utm_campaign=yelp_api_v3&utm_medium=api_v3_business_search&utm_source=OY9bhzgAA-Uo0FfcOdtyDQ", "review_count": 644, "categories": [{"alias": "tapasmallplates", "title": "Tapas/Small Plates"}, {"alias": "spanish", "title": "Spanish"}, {"alias": "tapas", "title": "Tapas Bars"}], "rating": 4.0, "coordinates": {"latitude": 40.771522, "longitude": -73.956073}, "transactions": ["delivery", "pickup"], "price": "$$$", "location": {"address1": "1460 2nd Ave", "address2": "", "address3": "", "city": "New York", "zip_code": "10075", "country": "US", "state": "NY", "display_address": ["1460 2nd Ave", "New York, NY 10075"]}, "phone": "+12123432227", "display_phone": "(212) 343-2227", "distance": 8022.0936685931465}, {"id": "gvMYV5E3HyzhN_MYFIMGzg", "alias": "el-born-brooklyn", "name": "El Born", "image_url": "https://s3-media4.fl.yelpcdn.com/bphoto/I0RdvEhtgC1LV_duQv5Afg/o.jpg", "is_closed": false, "url": "https://www.yelp.com/biz/el-born-brooklyn?adjust_creative=OY9bhzgAA-Uo0FfcOdtyDQ&utm_campaign=yelp_api_v3&utm_medium=api_v3_business_search&utm_source=OY9bhzgAA-Uo0FfcOdtyDQ", "review_count": 270, "categories": [{"alias": "spanish", "title": "Spanish"}, {"alias": "wine_bars", "title": "Wine Bars"}, {"alias": "tapasmallplates", "title": "Tapas/Small Plates"}], "rating": 4.5, "coordinates": {"latitude": 40.7243479163883, "longitude": -73.9512226101037}, "transactions": ["delivery", "pickup"], "price": "$$", "location": {"address1": "651 Manhattan Ave", "address2": "", "address3": "", "city": "Brooklyn", "zip_code": "11222", "country": "US", "state": "NY", "display_address": ["651 Manhattan Ave", "Brooklyn, NY 11222"]}, "phone": "+13478449295", "display_phone": "(347) 844-9295", "distance": 4194.692764168617}, {"id": "5IGFJRN06HiclnivxaFThQ", "alias": "el-pote-espa\u00f1ol-restaurant-new-york-2", "name": "El Pote Espa\u00f1ol Restaurant", "image_url": "https://s3-media2.fl.yelpcdn.com/bphoto/PWpQNI4vt_IrNGiu-U8tEQ/o.jpg", "is_closed": false, "url": "https://www.yelp.com/biz/el-pote-espa%C3%B1ol-restaurant-new-york-2?adjust_creative=OY9bhzgAA-Uo0FfcOdtyDQ&utm_campaign=yelp_api_v3&utm_medium=api_v3_business_search&utm_source=OY9bhzgAA-Uo0FfcOdtyDQ", "review_count": 160, "categories": [{"alias": "spanish", "title": "Spanish"}, {"alias": "basque", "title": "Basque"}], "rating": 4.0, "coordinates": {"latitude": 40.74758, "longitude": -73.97362}, "transactions": [], "price": "$$", "location": {"address1": "718 2nd Ave", "address2": "", "address3": "", "city": "New York", "zip_code": "10016", "country": "US", "state": "NY", "display_address": ["718 2nd Ave", "New York, NY 10016"]}, "phone": "+12128896680", "display_phone": "(212) 889-6680", "distance": 4995.718268323384}, {"id": "zekbMn7KWtzxTFLtfEqb1w", "alias": "rincon-criollo-corona", "name": "Rincon Criollo", "image_url": "https://s3-media2.fl.yelpcdn.com/bphoto/ol7QPeu5H6x9MBjjT6zJmA/o.jpg", "is_closed": false, "url": "https://www.yelp.com/biz/rincon-criollo-corona?adjust_creative=OY9bhzgAA-Uo0FfcOdtyDQ&utm_campaign=yelp_api_v3&utm_medium=api_v3_business_search&utm_source=OY9bhzgAA-Uo0FfcOdtyDQ", "review_count": 738, "categories": [{"alias": "cuban", "title": "Cuban"}], "rating": 4.5, "coordinates": {"latitude": 40.7489644, "longitude": -73.8690814}, "transactions": ["delivery", "pickup"], "price": "$$", "location": {"address1": "40-09 Junction Blvd", "address2": "", "address3": "", "city": "Corona", "zip_code": "11368", "country": "US", "state": "NY", "display_address": ["40-09 Junction Blvd", "Corona, NY 11368"]}, "phone": "+17186398158", "display_phone": "(718) 639-8158", "distance": 11611.335767326253}, {"id": "qIOAlXCCYrwN0VxEEH-Tmw", "alias": "boqueria-spanish-tapas-flatiron-new-york-4", "name": "Boqueria Spanish Tapas - Flatiron", "image_url": "https://s3-media3.fl.yelpcdn.com/bphoto/GtD6PlTI_vsg04Hfre8iuQ/o.jpg", "is_closed": false, "url": "https://www.yelp.com/biz/boqueria-spanish-tapas-flatiron-new-york-4?adjust_creative=OY9bhzgAA-Uo0FfcOdtyDQ&utm_campaign=yelp_api_v3&utm_medium=api_v3_business_search&utm_source=OY9bhzgAA-Uo0FfcOdtyDQ", "review_count": 1185, "categories": [{"alias": "spanish", "title": "Spanish"}, {"alias": "tapas", "title": "Tapas Bars"}, {"alias": "wine_bars", "title": "Wine Bars"}], "rating": 4.0, "coordinates": {"latitude": 40.7402927726298, "longitude": -73.9940709810079}, "transactions": ["delivery", "pickup"], "price": "$$$", "location": {"address1": "53 W 19th St", "address2": null, "address3": "", "city": "New York", "zip_code": "10011", "country": "US", "state": "NY", "display_address": ["53 W 19th St", "New York, NY 10011"]}, "phone": "+12122554160", "display_phone": "(212) 255-4160", "distance": 3874.95155313543}, {"id": "OUzTKc5YcCPOPG5e8Di67g", "alias": "sala-one-nine-new-york", "name": "Sala One Nine", "image_url": "https://s3-media1.fl.yelpcdn.com/bphoto/hPYL0w2U7WJwubL1o1PN_g/o.jpg", "is_closed": false, "url": "https://www.yelp.com/biz/sala-one-nine-new-york?adjust_creative=OY9bhzgAA-Uo0FfcOdtyDQ&utm_campaign=yelp_api_v3&utm_medium=api_v3_business_search&utm_source=OY9bhzgAA-Uo0FfcOdtyDQ", "review_count": 765, "categories": [{"alias": "tapas", "title": "Tapas Bars"}, {"alias": "spanish", "title": "Spanish"}, {"alias": "basque", "title": "Basque"}], "rating": 4.0, "coordinates": {"latitude": 40.7398849, "longitude": -73.9931044}, "transactions": ["delivery", "pickup"], "price": "$$", "location": {"address1": "35 W 19th St", "address2": null, "address3": "", "city": "New York", "zip_code": "10011", "country": "US", "state": "NY", "display_address": ["35 W 19th St", "New York, NY 10011"]}, "phone": "+12122292300", "display_phone": "(212) 229-2300", "distance": 3830.8631877359785}, {"id": "J5JJbRZ9ttn-TtS8KkmTNQ", "alias": "mar-at-mercado-little-spain-new-york-2", "name": "Mar at Mercado Little Spain", "image_url": "https://s3-media3.fl.yelpcdn.com/bphoto/iUQG8RR7zYs8hJ-Xr6UBhA/o.jpg", "is_closed": false, "url": "https://www.yelp.com/biz/mar-at-mercado-little-spain-new-york-2?adjust_creative=OY9bhzgAA-Uo0FfcOdtyDQ&utm_campaign=yelp_api_v3&utm_medium=api_v3_business_search&utm_source=OY9bhzgAA-Uo0FfcOdtyDQ", "review_count": 3, "categories": [{"alias": "spanish", "title": "Spanish"}], "rating": 4.5, "coordinates": {"latitude": 40.7527330553769, "longitude": -74.0014027138744}, "transactions": [], "location": {"address1": "10 Hudson Yards", "address2": "", "address3": null, "city": "New York", "zip_code": "10001", "country": "US", "state": "NY", "display_address": ["10 Hudson Yards", "New York, NY 10001"]}, "phone": "+16464951242", "display_phone": "(646) 495-1242", "distance": 5292.217640825233}, {"id": "iTj5T_jPYvznd1QTgs7NZw", "alias": "nai-tapas-new-york-3", "name": "Nai Tapas", "image_url": "https://s3-media3.fl.yelpcdn.com/bphoto/pMBA4OzmyvqcO4OmTp1yiw/o.jpg", "is_closed": false, "url": "https://www.yelp.com/biz/nai-tapas-new-york-3?adjust_creative=OY9bhzgAA-Uo0FfcOdtyDQ&utm_campaign=yelp_api_v3&utm_medium=api_v3_business_search&utm_source=OY9bhzgAA-Uo0FfcOdtyDQ", "review_count": 847, "categories": [{"alias": "tapas", "title": "Tapas Bars"}, {"alias": "spanish", "title": "Spanish"}, {"alias": "breakfast_brunch", "title": "Breakfast & Brunch"}], "rating": 4.0, "coordinates": {"latitude": 40.72676, "longitude": -73.98923}, "transactions": [], "price": "$$", "location": {"address1": "85 2nd Ave", "address2": "", "address3": "", "city": "New York", "zip_code": "10003", "country": "US", "state": "NY", "display_address": ["85 2nd Ave", "New York, NY 10003"]}, "phone": "+12126771030", "display_phone": "(212) 677-1030", "distance": 2411.2962234343086}, {"id": "RQi2YmAkk8g9WdNStAhfbQ", "alias": "sevilla-restaurant-new-york", "name": "Sevilla Restaurant", "image_url": "https://s3-media3.fl.yelpcdn.com/bphoto/MYaOq2ZgcT10Nb7uOjEI6Q/o.jpg", "is_closed": false, "url": "https://www.yelp.com/biz/sevilla-restaurant-new-york?adjust_creative=OY9bhzgAA-Uo0FfcOdtyDQ&utm_campaign=yelp_api_v3&utm_medium=api_v3_business_search&utm_source=OY9bhzgAA-Uo0FfcOdtyDQ", "review_count": 425, "categories": [{"alias": "spanish", "title": "Spanish"}, {"alias": "bars", "title": "Bars"}, {"alias": "seafood", "title": "Seafood"}], "rating": 3.5, "coordinates": {"latitude": 40.7348725944757, "longitude": -74.0029708296061}, "transactions": [], "price": "$$", "location": {"address1": "62 Charles St", "address2": "", "address3": "", "city": "New York", "zip_code": "10014", "country": "US", "state": "NY", "display_address": ["62 Charles St", "New York, NY 10014"]}, "phone": "+12129293189", "display_phone": "(212) 929-3189", "distance": 3348.6527364608933}, {"id": "W5j4EA1fDT3EKdXdKABG3Q", "alias": "el-porron-new-york", "name": "El Porron", "image_url": "https://s3-media3.fl.yelpcdn.com/bphoto/UZKRbwIKiEXTlNWsgCSlsQ/o.jpg", "is_closed": false, "url": "https://www.yelp.com/biz/el-porron-new-york?adjust_creative=OY9bhzgAA-Uo0FfcOdtyDQ&utm_campaign=yelp_api_v3&utm_medium=api_v3_business_search&utm_source=OY9bhzgAA-Uo0FfcOdtyDQ", "review_count": 316, "categories": [{"alias": "spanish", "title": "Spanish"}, {"alias": "tapasmallplates", "title": "Tapas/Small Plates"}, {"alias": "basque", "title": "Basque"}], "rating": 4.0, "coordinates": {"latitude": 40.7612513, "longitude": -73.9609554}, "transactions": ["delivery", "pickup"], "price": "$$", "location": {"address1": "1123 1st Ave", "address2": "", "address3": "", "city": "New York", "zip_code": "10065", "country": "US", "state": "NY", "display_address": ["1123 1st Ave", "New York, NY 10065"]}, "phone": "+12122078349", "display_phone": "(212) 207-8349", "distance": 6811.551529403324}, {"id": "gEEqoeSekTOjRVmyY4fplA", "alias": "cabana-forest-hills", "name": "Cabana", "image_url": "https://s3-media3.fl.yelpcdn.com/bphoto/EW3XqviRDpfbNu9MIzZ49g/o.jpg", "is_closed": false, "url": "https://www.yelp.com/biz/cabana-forest-hills?adjust_creative=OY9bhzgAA-Uo0FfcOdtyDQ&utm_campaign=yelp_api_v3&utm_medium=api_v3_business_search&utm_source=OY9bhzgAA-Uo0FfcOdtyDQ", "review_count": 883, "categories": [{"alias": "latin", "title": "Latin American"}, {"alias": "cuban", "title": "Cuban"}], "rating": 4.0, "coordinates": {"latitude": 40.7208678329074, "longitude": -73.8456881046295}, "transactions": [], "price": "$$", "location": {"address1": "107-10 70th Rd", "address2": "", "address3": "", "city": "Forest Hills", "zip_code": "11375", "country": "US", "state": "NY", "display_address": ["107-10 70th Rd", "Forest Hills, NY 11375"]}, "phone": "+17182633600", "display_phone": "(718) 263-3600", "distance": 12641.885817922912}], "total": 2100, "region": {"center": {"longitude": -73.99429321289062, "latitude": 40.70544486444615}}}